cep,latitude,longitude,state,city,neighborhood,street
38400001,-18.992836,-48.337149,MG,Uberlandia,IRMA DULCE,RUA 5
38400010,-18.948334,-48.230966,MG,Uberlandia,SAO JORGE,RUA G
38400011,-18.940583,-48.278473,MG,Uberlandia,MORUMBI,RUA DAS GOIABEIRAS
38400012,-18.91278,-48.263554,MG,Uberlandia,CAZECA,RUA HORTENCIO MORAIS
38400013,-18.895627,-48.319212,MG,Uberlandia,TAIAMAN,RUA JOSE HONORATO MENDES
38400014,-18.89987,-48.315088,MG,Uberlandia,CAZECA,RUA CAMILO BRAGA
38400015,-18.91609,-48.266211,MG,Uberlandia,CAZECA,RUA RONDON PACHECO
38400016,-18.905794,-48.291532,MG,Uberlandia,CAZECA,RUA SEGISMUNDO MORAIS
38400018,-18.914631,-48.265346,MG,Uberlandia,CAZECA,RUA JOSE MORAIS
38400019,-18.91654,-48.268079,MG,Uberlandia,CAZECA,AVENIDA RIO BRANCO
38400020,-18.928926,-48.290016,MG,Uberlandia,CAZECA,RUA GERALDO DE MORAIS
38400022,-18.916463,-48.266725,MG,Uberlandia,CAZECA,RUA MARIO REZENDE RIBEIRO
38400023,-18.914976,-48.256649,MG,Uberlandia,CAZECA,RUA IPIRANGA
38400024,-18.915485,-48.26781,MG,Uberlandia,CAZECA,RUA FRANCISCO ZUMPANO
38400026,-18.971752,-48.358294,MG,Uberlandia,LAGO AZUL,RUA JOAO MARQUES TACONPRATA
38400028,-18.917735,-48.267372,MG,Uberlandia,CAZECA,RUA MARIA VILELA RIBEIRO
38400030,-18.939034,-48.305648,MG,Uberlandia,CAZECA,RUA JOAQUIM CORDEIRO
38400032,-18.917322,-48.270669,MG,Uberlandia,CENTRO,TRAVESSA JOSE CAMIM
38400034,-18.928514,-48.289967,MG,Uberlandia,CAZECA,RUA ELMIRO GONCALVES PINTO
38400036,-18.93952,-48.207961,MG,Uberlandia,MARTINESIA,ESTRADA SEM DENOMINACAO
38400038,-18.92999,-48.297742,MG,Uberlandia,MARTINESIA,SEDE FAZENDA CINCO ESTRELAS
38400040,-18.913495,-48.264106,MG,Uberlandia,CAZECA,PRACA ANA MORAIS
38400042,-18.913891,-48.268245,MG,Uberlandia,CENTRO,AVENIDA JOAO NAVES DE AVILA
38400043,-18.913573,-48.243642,MG,Uberlandia,CENTRO,RUA JOAQUIM CORDEIRO
38400044,-18.914372,-48.26413,MG,Uberlandia,CAZECA,RUA PEDRO CROSARA CHERULLI
38400046,-18.914713,-48.263569,MG,Uberlandia,CAZECA,RUA ADELINO FRANCO
38400048,-18.91356,-48.264247,MG,Uberlandia,CAZECA,RUA ANTONIO DE MORAIS
38400049,-18.920533,-48.271192,MG,Uberlandia,LIDICE,RUA QUINTINO BOCAIUVA
38400050,-18.921394,-48.269147,MG,Uberlandia,LIDICE,AVENIDA RONDON PACHECO
38400051,-18.921372,-48.271452,MG,Uberlandia,LIDICE,RUA TENENTE VIRMONDES
38400052,-18.913869,-48.271144,MG,Uberlandia,CAZECA,RUA CRUZEIRO DOS PEIXOTOS
38400053,-18.915369,-48.269181,MG,Uberlandia,CAZECA,AVENIDA JOAO NAVES DE AVILA
38400054,-18.914168,-48.266756,MG,Uberlandia,CAZECA,RUA GREGORIO PEREIRA
38400056,-18.919523,-48.27165,MG,Uberlandia,CENTRO,AVENIDA RIO BRANCO
38400058,-18.917671,-48.269728,MG,Uberlandia,LIDICE,AVENIDA RIO BRANCO
38400060,-18.884027,-48.315319,MG,Uberlandia,UBERLANDIA,RUA DEZOITO
38400062,-18.925636,-48.276543,MG,Uberlandia,LIDICE,RUA SANTOS DUMONT
38400064,-18.921627,-48.281562,MG,Uberlandia,CENTRO,RUA GOIAS
38400066,-18.916816,-48.267464,MG,Uberlandia,CAZECA,RUA JOSE NONATO RIBEIRO
38400068,-18.91911,-48.275804,MG,Uberlandia,LIDICE,RUA EDUARDO DE OLIVEIRA
38400070,-18.928127,-48.280545,MG,Uberlandia,TABAJARAS,RUA JOHEN CARNEIRO
38400072,-18.921124,-48.271193,MG,Uberlandia,LIDICE,RUA JOHEN CARNEIRO
38400073,-18.918621,-48.267459,MG,Uberlandia,LIDICE,RUA JOAQUIM CORDEIRO
38400074,-18.922643,-48.272031,MG,Uberlandia,LIDICE,RUA CARAJAS
38400076,-18.929067,-48.280601,MG,Uberlandia,TABAJARAS,RUA CARAJAS
38400078,-18.923399,-48.275261,MG,Uberlandia,LIDICE,RUA VITAL JOSE CARRIJO
38400080,-18.926742,-48.280084,MG,Uberlandia,TABAJARAS,RUA VITAL JOSE CARRIJO
38400081,-18.922346,-48.272366,MG,Uberlandia,LIDICE,RUA MACHADO DE ASSIS
38400082,-18.922728,-48.271451,MG,Uberlandia,LIDICE,RUA XAVANTES
38400083,-18.922553,-48.274832,MG,Uberlandia,LIDICE,TRAVESSA CRISTO REI
38400084,-18.920114,-48.279805,MG,Uberlandia,CENTRO,RUA OLEGARIO MACIEL
38400086,-18.927018,-48.269175,MG,Uberlandia,VIGILATO PEREIRA,RUA OLEGARIO MACIEL
38400088,-18.924574,-48.274977,MG,Uberlandia,LIDICE,RUA DOUTOR LACERDA
38400090,-18.927911,-48.271659,MG,Uberlandia,LIDICE,RUA RIO PRETO
38400092,-18.923962,-48.271992,MG,Uberlandia,LIDICE,PRACA MICHEL CURY
38400094,-18.918065,-48.270944,MG,Uberlandia,LIDICE,RUA REZENDE
38400095,-18.912924,-48.270666,MG,Uberlandia,CENTRO,RUA ROOSEVELT OLIVEIRA
38400096,-18.920001,-48.275177,MG,Uberlandia,CENTRO,AVENIDA CESARIO ALVIM
38400097,-18.914968,-48.270171,MG,Uberlandia,CENTRO,AVENIDA JOAO NAVES DE AVILA
38400098,-18.915192,-48.271657,MG,Uberlandia,CENTRO,AVENIDA CESARIO ALVIM
38400099,-18.933317,-48.252021,MG,Uberlandia,DOM ALMIR,AVENIDA RIGOLETO FIDALE
38400100,-18.920548,-48.277606,MG,Uberlandia,CENTRO,AVENIDA FLORIANO PEIXOTO
38400101,-18.914777,-48.26953,MG,Uberlandia,CENTRO,TRAVESSA ANTONIO FONSECA E SILVA
38400102,-18.917041,-48.274993,MG,Uberlandia,CENTRO,AVENIDA FLORIANO PEIXOTO
38400104,-18.918665,-48.271854,MG,Uberlandia,UBERLANDIA,RUA CORONEL ANTONIO ALVES PEREIRA
38400106,-18.917797,-48.280335,MG,Uberlandia,CENTRO,AVENIDA CIPRIANO DEL FAVERO
38400107,-18.912718,-48.272706,MG,Uberlandia,CENTRO,RUA CRUZEIRO DOS PEIXOTOS
38400108,-18.917738,-48.275363,MG,Uberlandia,CENTRO,RUA QUINTINO BOCAIUVA
38400109,-18.912842,-48.274311,MG,Uberlandia,CENTRO,RUA MARTINESIA
38400110,-18.913842,-48.251823,MG,Uberlandia,SANTA ROSA,AVENIDA ANALIA RESENDE SIQUIEROLI
38400111,-18.914657,-48.272005,MG,Uberlandia,CENTRO,TRAVESSA JOVIANO RODRIGUES
38400112,-18.919083,-48.277324,MG,Uberlandia,CENTRO,RUA MACHADO DE ASSIS
38400113,-18.914876,-48.272272,MG,Uberlandia,CENTRO,TRAVESSA PROFESSOR MACEDO
38400114,-18.915698,-48.279548,MG,Uberlandia,CENTRO,TRAVESSA MORAIS
38400115,-18.914697,-48.27316,MG,Uberlandia,CENTRO,RUA ABDALLA HADDAD
38400116,-18.919348,-48.272015,MG,Uberlandia,CENTRO,TRAVESSA CASCALHO RICO
38400117,-18.915476,-48.273392,MG,Uberlandia,CENTRO,RUA CAIAPONIA
38400118,-18.918646,-48.272744,MG,Uberlandia,CENTRO,RUA AGENOR PAES
38400119,-18.914288,-48.273674,MG,Uberlandia,CENTRO,RUA GARDENIA
38400120,-18.919626,-48.275631,MG,Uberlandia,CENTRO,TRAVESSA RICARDO SILVA
38400121,-18.916585,-48.27475,MG,Uberlandia,CENTRO,PRACA PROFESSOR JACY DE ASSIS
38400124,-18.915984,-48.27766,MG,Uberlandia,FUNDINHO,AVENIDA JOAO PINHEIRO
38400125,-18.914088,-48.273934,MG,Uberlandia,CENTRO,RUA PADRE MARIO FORESTAN
38400126,-18.915593,-48.277504,MG,Uberlandia,CENTRO,AVENIDA JOAO PINHEIRO
38400128,-18.920751,-48.279555,MG,Uberlandia,CENTRO,AVENIDA AFONSO PENA
38400130,-18.916713,-48.276611,MG,Uberlandia,CENTRO,AVENIDA AFONSO PENA
38400132,-18.924331,-48.277329,MG,Uberlandia,TABAJARAS,RUA PADRE ANCHIETA
38400134,-18.927984,-48.277365,MG,Uberlandia,LIDICE,RUA JAMIL TANNUS
38400136,-18.929153,-48.278124,MG,Uberlandia,LIDICE,RUA ALEXANDRINO DOS SANTOS
38400138,-18.924932,-48.275919,MG,Uberlandia,LIDICE,RUA PROFESSOR MARIO PORTO
38400139,-18.927708,-48.276348,MG,Uberlandia,LIDICE,RUA ANTONIO POVOA
38400140,-18.925224,-48.275776,MG,Uberlandia,LIDICE,PRACA PROFESSOR HENCKMAR BORGES
38400142,-18.920457,-48.27718,MG,Uberlandia,CENTRO,RUA DUQUE DE CAXIAS
38400144,-18.925291,-48.27012,MG,Uberlandia,LIDICE,RUA DUQUE DE CAXIAS
38400146,-18.926057,-48.277368,MG,Uberlandia,LIDICE,RUA JAVARI
38400148,-18.925587,-48.278166,MG,Uberlandia,LIDICE,RUA RODOLFO CORREA
38400150,-18.926319,-48.279035,MG,Uberlandia,LIDICE,RUA TOBIAS INACIO
38400154,-18.92269,-48.281351,MG,Uberlandia,FUNDINHO,RUA BERNARDO GUIMARAES
38400156,-18.924237,-48.282444,MG,Uberlandia,FUNDINHO,PRACA DOUTOR DUARTE
38400158,-18.926952,-48.282325,MG,Uberlandia,TABAJARAS,RUA GENERAL OSORIO
38400160,-18.923844,-48.278388,MG,Uberlandia,LIDICE,RUA BARAO DE CAMARGOS
38400162,-18.927009,-48.280644,MG,Uberlandia,TABAJARAS,RUA AUGUSTO CESAR
38400164,-18.927569,-48.281271,MG,Uberlandia,FUNDINHO,RUA FRANCISCO ALVES
38400165,-18.926832,-48.281863,MG,Uberlandia,FUNDINHO,RUA LUCIA MATOS
38400166,-18.926889,-48.280464,MG,Uberlandia,TABAJARAS,PRACA LADARIO TEIXEIRA
38400168,-18.925776,-48.282276,MG,Uberlandia,FUNDINHO,RUA MERCEDES BRASILEIRO
38400170,-18.924708,-48.280898,MG,Uberlandia,FUNDINHO,AVENIDA NICODEMOS ALVES DOS SANTOS
38400172,-18.922946,-48.277902,MG,Uberlandia,CENTRO,RUA PROFESSOR PEDRO BERNARDO
38400174,-18.923368,-48.279223,MG,Uberlandia,FUNDINHO,PRACA RUI BARBOSA
38400176,-18.923639,-48.280059,MG,Uberlandia,FUNDINHO,RUA SILVIANO BRANDAO
38400178,-18.92896,-48.281294,MG,Uberlandia,TABAJARAS,RUA VICENTE GUIMARAES MATOS
38400182,-18.919009,-48.281257,MG,Uberlandia,CENTRO,PRACA LUIZ DE FREITAS COSTA
38400186,-18.919992,-48.278143,MG,Uberlandia,CENTRO,PRACA TUBAL VILELA
38400188,-18.927943,-48.282091,MG,Uberlandia,FUNDINHO,RUA JOSE AIUBE
38400192,-18.921792,-48.286131,MG,Uberlandia,TABAJARAS,RUA PRINCESA ISABEL
38400193,-18.920006,-48.283858,MG,Uberlandia,TABAJARAS,PRACA LUZ E CARIDADE
38400194,-18.921442,-48.285453,MG,Uberlandia,TABAJARAS,PRACA JOAO FONSECA
38400196,-18.92161,-48.284205,MG,Uberlandia,FUNDINHO,RUA TEIXEIRA SANTANA
38400198,-18.922809,-48.284031,MG,Uberlandia,FUNDINHO,RUA BERNARDO GUIMARAES
38400199,-18.92303,-48.287321,MG,Uberlandia,TABAJARAS,PRACA NOSSA SENHORA DO CARMO
38400200,-18.923531,-48.285774,MG,Uberlandia,FUNDINHO,RUA TIRADENTES
38400202,-18.925056,-48.283014,MG,Uberlandia,FUNDINHO,RUA VIGARIO
38400204,-18.92612,-48.283717,MG,Uberlandia,FUNDINHO,RUA FELISBERTO CARREJO
38400206,-18.926718,-48.284535,MG,Uberlandia,TABAJARAS,RUA DOM BARRETO
38400208,-18.923939,-48.285184,MG,Uberlandia,TABAJARAS,RUA SILVA JARDIM
38400210,-18.926934,-48.284818,MG,Uberlandia,FUNDINHO,RUA JOAQUIM SARAIVA
38400212,-18.924778,-48.283139,MG,Uberlandia,FUNDINHO,RUA MARECHAL DEODORO
38400214,-18.924419,-48.286592,MG,Uberlandia,TABAJARAS,RUA QUINZE DE NOVEMBRO
38400216,-18.924256,-48.28396,MG,Uberlandia,FUNDINHO,PRACA CICERO MACEDO
38400220,-18.928571,-48.282614,MG,Uberlandia,TABAJARAS,RUA BERNARDINO FONSECA
38400222,-18.929248,-48.283228,MG,Uberlandia,TABAJARAS,RUA CORONEL CONSTANTINO
38400223,-18.930421,-48.28313,MG,Uberlandia,TABAJARAS,RUA MONTE CASTELO
38400224,-18.926462,-48.284911,MG,Uberlandia,TABAJARAS,RUA ENGENHEIRO JAMES MELLOR
38400225,-18.931337,-48.28336,MG,Uberlandia,TABAJARAS,RUA CORONEL ERNESTO
38400226,-18.923591,-48.284457,MG,Uberlandia,FUNDINHO,RUA CORONEL MANOEL ALVES
38400228,-18.926139,-48.287717,MG,Uberlandia,TABAJARAS,RUA CORONEL SEVERIANO
38400229,-18.927629,-48.28543,MG,Uberlandia,TABAJARAS,RUA BENJAMIN MONTEIRO
38400230,-18.927014,-48.285796,MG,Uberlandia,TABAJARAS,RUA JOAO INACIO LEMES
38400232,-18.928193,-48.285033,MG,Uberlandia,TABAJARAS,RUA SOUZA COSTA
38400234,-18.928984,-48.286258,MG,Uberlandia,TABAJARAS,RUA FERNANDO COSTA
38400235,-18.930138,-48.282667,MG,Uberlandia,TABAJARAS,RUA GENERAL OSORIO
38400236,-18.929573,-48.287986,MG,Uberlandia,TABAJARAS,RUA SENADOR SALGADO FILHO
38400237,-18.927287,-48.279431,MG,Uberlandia,TABAJARAS,AVENIDA NICOMEDES ALVES DOS SANTOS
38400238,-18.930221,-48.287918,MG,Uberlandia,TABAJARAS,RUA VIRGILIO MELO FRANCO
38400242,-18.931001,-48.283951,MG,Uberlandia,TABAJARAS,AVENIDA RONDON PACHECO
38400244,-18.93451,-48.285322,MG,Uberlandia,PATRIMONIO,RUA LEBLON
38400246,-18.92921,-48.286492,MG,Uberlandia,TABAJARAS,RUA BOTAFOGO
38400248,-18.929234,-48.287459,MG,Uberlandia,TABAJARAS,RUA ICARAI
38400250,-18.930148,-48.287708,MG,Uberlandia,TABAJARAS,PRACA JOSE ESTEVES
38400252,-18.929516,-48.288636,MG,Uberlandia,TABAJARAS,RUA DA CARIOCA
38400254,-18.929755,-48.289561,MG,Uberlandia,TABAJARAS,AVENIDA DOS MUNICIPIOS
38400256,-18.932016,-48.290595,MG,Uberlandia,PATRIMONIO,RUA TIJUCA
38400258,-18.929428,-48.291579,MG,Uberlandia,TABAJARAS,AVENIDA HERMES FONSECA CARNEIRO
38400261,-18.927174,-48.287601,MG,Uberlandia,TABAJARAS,RUA B
38400262,-18.927095,-48.288325,MG,Uberlandia,TABAJARAS,AVENIDA AFRANIO RODRIGUES DA CUNHA
38400264,-18.927893,-48.289648,MG,Uberlandia,TABAJARAS,RUA TUIUTI
38400266,-18.924822,-48.287911,MG,Uberlandia,TABAJARAS,RUA PROFESSORA GUARACIABA SANTOS
38400268,-18.924687,-48.288299,MG,Uberlandia,TABAJARAS,PRACA CORONEL VIRGILIO RODRIGUES DA CUNHA
38400272,-18.924293,-48.288655,MG,Uberlandia,TABAJARAS,RUA TAMANDARE
38400274,-18.924631,-48.289509,MG,Uberlandia,TABAJARAS,RUA SANTA VITORIA
38400276,-18.92661,-48.291917,MG,Uberlandia,TABAJARAS,RUA GENERAL CAMARA
38400278,-18.922849,-48.288714,MG,Uberlandia,TABAJARAS,RUA MARIA MONTEIRO
38400280,-18.923292,-48.289256,MG,Uberlandia,TABAJARAS,RUA GENERAL CANABARRO
38400282,-18.923542,-48.290112,MG,Uberlandia,TABAJARAS,RUA ANGELICA ALESSANDRI ASPESI
38400283,-18.922232,-48.288821,MG,Uberlandia,TABAJARAS,AVENIDA GETULIO VARGAS
38400284,-18.925929,-48.289316,MG,Uberlandia,TABAJARAS,RUA OLAVO BILAC
38400286,-18.926896,-48.289762,MG,Uberlandia,TABAJARAS,RUA COELHO NETO
38400288,-18.926469,-48.291028,MG,Uberlandia,TABAJARAS,RUA GONCALVES DIAS
38400290,-18.926784,-48.291727,MG,Uberlandia,TABAJARAS,RUA VITAL MACEDO
38400292,-18.927399,-48.292325,MG,Uberlandia,TABAJARAS,RUA JOSE BONIFACIO
38400294,-18.927148,-48.293394,MG,Uberlandia,TABAJARAS,RUA ALVARES CABRAL
38400296,-18.927318,-48.294137,MG,Uberlandia,TABAJARAS,RUA LAGUNA
38400298,-18.924615,-48.292182,MG,Uberlandia,TABAJARAS,RUA SANTA HELENA
38400299,-18.918678,-48.28379,MG,Uberlandia,TABAJARAS,AVENIDA GETULIO VARGAS
38400302,-18.924493,-48.295033,MG,Uberlandia,DANIEL FONSECA,RUA HORACIO REZENDE
38400304,-18.920067,-48.300579,MG,Uberlandia,DANIEL FONSECA,RUA ROSA COSTA SOUZA
38400306,-18.920196,-48.301333,MG,Uberlandia,DANIEL FONSECA,RUA NEWTON FONSECA ARANTES
38400307,-18.919109,-48.300743,MG,Uberlandia,DANIEL FONSECA,PRACA CATAGUASES
38400308,-18.91891,-48.300477,MG,Uberlandia,DANIEL FONSECA,AVENIDA BRIGADEIRO SAMPAIO
38400309,-18.922854,-48.297126,MG,Uberlandia,DANIEL FONSECA,RUA FRANCISCO SALES
38400310,-18.919392,-48.302402,MG,Uberlandia,DANIEL FONSECA,RUA ANTONIO BERNARDES DA SILVA
38400312,-18.920305,-48.305718,MG,Uberlandia,CHACARAS TUBALINA,RUA MARCIO RIBEIRO DA SILVA
38400313,-18.911347,-48.289229,MG,Uberlandia,MARTINS,AVENIDA ARAGUARI
38400314,-18.910687,-48.303046,MG,Uberlandia,DANIEL FONSECA,PRACA DOS PIONEIROS
38400315,-18.917019,-48.30317,MG,Uberlandia,DANIEL FONSECA,RUA IRAI DE MINAS
38400316,-18.923233,-48.298049,MG,Uberlandia,TABAJARAS,AVENIDA GERALDO MOTTA BATISTA
38400318,-18.924131,-48.296994,MG,Uberlandia,DANIEL FONSECA,RUA BARRETOS
38400320,-18.919023,-48.300408,MG,Uberlandia,DANIEL FONSECA,RUA MONLEVADE
38400322,-18.918143,-48.300285,MG,Uberlandia,DANIEL FONSECA,RUA VARGINHA
38400323,-18.920582,-48.297359,MG,Uberlandia,DANIEL FONSECA,RUA BERNARDO CUPERTINO
38400324,-18.917528,-48.299883,MG,Uberlandia,DANIEL FONSECA,RUA ITABIRA
38400325,-19.091288,-48.364592,MG,Uberlandia,DANIEL FONSECA,AVENIDA VASCONCELOS COSTA
38400326,-18.917558,-48.298854,MG,Uberlandia,DANIEL FONSECA,RUA TOMAZINHO REZENDE
38400327,-18.917524,-48.301274,MG,Uberlandia,DANIEL FONSECA,AVENIDA FERNANDO VILELA
38400328,-18.917775,-48.297629,MG,Uberlandia,OSVALDO REZENDE,AVENIDA MARCOS DE FREITAS COSTA
38400329,-18.924796,-48.293704,MG,Uberlandia,DANIEL FONSECA,AVENIDA GETULIO VARGAS
38400330,-19.025932,-48.412136,MG,Uberlandia,ACAMPAMENTO,ESTRADA ANTIGA ESTRADA DO PRATA
38400336,-18.906513,-48.277375,MG,Uberlandia,BOM JESUS,RUA MEXICO
38400338,-18.907704,-48.278185,MG,Uberlandia,BOM JESUS,AVENIDA JOAO PESSOA
38400339,-18.907406,-48.283989,MG,Uberlandia,UBERLANDIA,AVENIDA ESTRELA DO SUL
38400340,-18.908832,-48.279047,MG,Uberlandia,MARTINS,RUA JOSE ANDRAUS
38400342,-18.904528,-48.279832,MG,Uberlandia,UBERLANDIA,RUA OTAVIO DE OLIVEIRA SANTOS
38400344,-18.908524,-48.280429,MG,Uberlandia,UBERLANDIA,RUA RIVALINO PEREIRA
38400346,-18.911112,-48.278997,MG,Uberlandia,UBERLANDIA,RUA FRANCISCO FORTES PINHO
38400350,-18.906668,-48.283921,MG,Uberlandia,UBERLANDIA,RUA FELIPE JOAO
38400351,-18.906004,-48.281775,MG,Uberlandia,UBERLANDIA,RUA FELIPE JOAO
38400352,-18.909196,-48.281388,MG,Uberlandia,MARTINS,RUA ARLINDO TEIXEIRA
38400354,-18.911708,-48.281206,MG,Uberlandia,MARTINS,RUA GRANDE XEXEU
38400356,-18.910999,-48.282047,MG,Uberlandia,UBERLANDIA,RUA VIEIRA GONCALVES
38400358,-18.912478,-48.283061,MG,Uberlandia,UBERLANDIA,RUA CARMO GIFONI
38400360,-19.054953,-48.504044,MG,Uberlandia,UBERLANDIA,ASSENTAMENTO NOVA TANGARA
38400361,-18.905336,-48.284237,MG,Uberlandia,UBERLANDIA,RUA INDIANOPOLIS
38400362,-18.912016,-48.284435,MG,Uberlandia,UBERLANDIA,RUA RODRIGUES DA CUNHA
38400364,-18.939013,-48.286758,MG,Uberlandia,UBERLANDIA,TRAVESSA FRUTAL
38400366,-18.908945,-48.286047,MG,Uberlandia,UBERLANDIA,PRACA NICOLAU FERES
38400367,-18.907313,-48.287206,MG,Uberlandia,UBERLANDIA,RUA MONTE CARMELO
38400368,-18.911929,-48.285737,MG,Uberlandia,UBERLANDIA,RUA ARTHUR BERNARDES
38400370,-18.912978,-48.286772,MG,Uberlandia,UBERLANDIA,AVENIDA RAULINO COTTA PACHECO
38400372,-18.910475,-48.287383,MG,Uberlandia,UBERLANDIA,AVENIDA RAULINO COTTA PACHECO
38400374,-18.913168,-48.285969,MG,Uberlandia,UBERLANDIA,TRAVESSA ITURAMA
38400375,-18.912547,-48.281851,MG,Uberlandia,UBERLANDIA,AVENIDA BELO HORIZONTE
38400376,-18.912557,-48.287754,MG,Uberlandia,OSVALDO REZENDE,RUA MELO VIANA
38400378,-18.912592,-48.288967,MG,Uberlandia,UBERLANDIA,RUA BUENO BRANDAO
38400380,-18.914405,-48.288959,MG,Uberlandia,OSVALDO REZENDE,TRAVESSA CANAPOLIS
38400381,-18.905346,-48.295437,MG,Uberlandia,JARDIM BRASILIA,AVENIDA PROFESSORA MINERVINA CANDIDA OLIVEIRA
38400382,-18.920319,-48.287004,MG,Uberlandia,OSVALDO REZENDE,TRAVESSA CENTRALINA
38400384,-18.913839,-48.289774,MG,Uberlandia,OSVALDO REZENDE,RUA RAFAEL RINALDI
38400386,-18.914004,-48.29084,MG,Uberlandia,OSVALDO REZENDE,RUA PADRE PIO
38400388,-18.920063,-48.289539,MG,Uberlandia,OSVALDO REZENDE,TRAVESSA CAPINOPOLIS
38400389,-18.909832,-48.292096,MG,Uberlandia,UBERLANDIA,AVENIDA ESTRELA DO SUL
38400390,-18.911376,-48.292958,MG,Uberlandia,OSVALDO REZENDE,RUA ENGENHEIRO AZELI
38400391,-18.918228,-48.291526,MG,Uberlandia,OSVALDO REZENDE,RUA BERNARDO CUPERTINO
38400392,-18.915504,-48.293162,MG,Uberlandia,OSVALDO REZENDE,AVENIDA PAES LEME
38400394,-18.921301,-48.29035,MG,Uberlandia,OSVALDO REZENDE,RUA ITAJUBA
38400396,-18.917679,-48.291513,MG,Uberlandia,OSVALDO REZENDE,RUA CAMPINA VERDE
38400397,-18.91495,-48.292411,MG,Uberlandia,OSVALDO REZENDE,RUA GOIANDIRA
38400398,-18.912656,-48.293269,MG,Uberlandia,OSVALDO REZENDE,RUA LUIZ DELLA PENA
38400402,-18.912904,-48.293649,MG,Uberlandia,OSVALDO REZENDE,RUA ALFREDO JULIO
38400403,-18.912558,-48.29019,MG,Uberlandia,OSVALDO REZENDE,AVENIDA ENGENHEIRO DINIZ
38400404,-18.92077,-48.291546,MG,Uberlandia,OSVALDO REZENDE,RUA ARAXA
38400408,-18.915442,-48.293405,MG,Uberlandia,OSVALDO REZENDE,RUA VITOR MELAZZO
38400410,-18.919166,-48.293233,MG,Uberlandia,OSVALDO REZENDE,RUA POCOS DE CALDAS
38400412,-18.912739,-48.296164,MG,Uberlandia,OSVALDO REZENDE,PRACA ADALBERTO RODRIGUES DA CUNHA
38400414,-18.910503,-48.296993,MG,Uberlandia,OSVALDO REZENDE,RUA DOUTOR LUIZ ROCHA SILVA
38400415,-18.910001,-48.29806,MG,Uberlandia,OSVALDO REZENDE,RUA OTAVIO OLIVEIRA SANTOS
38400418,-18.919116,-48.294093,MG,Uberlandia,OSVALDO REZENDE,RUA CAXAMBU
38400420,-18.918498,-48.295038,MG,Uberlandia,OSVALDO REZENDE,RUA LAMBARI
38400422,-18.917301,-48.296171,MG,Uberlandia,OSVALDO REZENDE,RUA ALFENAS
38400423,-18.910361,-48.290776,MG,Uberlandia,OSVALDO REZENDE,RUA SACRAMENTO
38400424,-18.910958,-48.297414,MG,Uberlandia,OSVALDO REZENDE,RUA OSVALDO REZENDE
38400425,-18.919107,-48.292082,MG,Uberlandia,OSVALDO REZENDE,RUA ARAXA
38400426,-18.913361,-48.298235,MG,Uberlandia,OSVALDO REZENDE,RUA CAMBUQUIRA
38400428,-18.914033,-48.298766,MG,Uberlandia,OSVALDO REZENDE,RUA SAO LOURENCO
38400429,-18.9135,-48.297314,MG,Uberlandia,OSVALDO REZENDE,AVENIDA ARAGUARI
38400430,-18.912879,-48.295126,MG,Uberlandia,OSVALDO REZENDE,RUA IBIA
38400431,-18.915831,-48.298492,MG,Uberlandia,OSVALDO REZENDE,AVENIDA MARCOS DE FREITAS COSTA
38400432,-18.913275,-48.300511,MG,Uberlandia,OSVALDO REZENDE,RUA DIVINOPOLIS
38400434,-18.91976,-48.285447,MG,Uberlandia,UBERLANDIA,AVENIDA GETULIO VARGAS
38400435,-18.920113,-48.286036,MG,Uberlandia,UBERLANDIA,AVENIDA GETULIO VARGAS
38400436,-18.921653,-48.289907,MG,Uberlandia,OSVALDO REZENDE,RUA TAPUIRAMA
38400438,-18.920497,-48.289372,MG,Uberlandia,OSVALDO REZENDE,RUA MARQUES POVOA
38400440,-18.919401,-48.288842,MG,Uberlandia,OSVALDO REZENDE,RUA FRANCISCO SALES
38400442,-18.918199,-48.287968,MG,Uberlandia,OSVALDO REZENDE,RUA EDUARDO MARQUES
38400444,-18.916625,-48.285996,MG,Uberlandia,DANIEL FONSECA,RUA BERNARDO CUPERTINO
38400445,-18.916478,-48.282205,MG,Uberlandia,UBERLANDIA,RUA EDUARDO MARQUES
38400446,-18.915462,-48.285087,MG,Uberlandia,UBERLANDIA,RUA ALEXANDRE MARQUEZ
38400447,-18.906713,-48.209994,MG,Uberlandia,DOM ALMIR,RUA ANA MARIA DE JESUS
38400448,-18.91429,-48.284446,MG,Uberlandia,UBERLANDIA,AVENIDA VASCONCELOS COSTA
38400450,-18.915794,-48.289449,MG,Uberlandia,UBERLANDIA,AVENIDA VASCONCELOS COSTA
38400452,-18.918445,-48.297552,MG,Uberlandia,DANIEL FONSECA,AVENIDA VASCONCELOS COSTA
38400454,-18.915403,-48.291801,MG,Uberlandia,OSVALDO REZENDE,AVENIDA BELO HORIZONTE
38400455,-18.910985,-48.27771,MG,Uberlandia,UBERLANDIA,RUA RANOR SANTOS DO CARMO
38400456,-18.911945,-48.28391,MG,Uberlandia,MARTINS,AVENIDA FERNANDO VILELA
38400458,-18.913772,-48.290253,MG,Uberlandia,OSVALDO REZENDE,AVENIDA FERNANDO VILELA
38400460,-18.91123,-48.283626,MG,Uberlandia,UBERLANDIA,RUA PROFESSOR JOAO BASILIO
38400462,-18.911014,-48.283391,MG,Uberlandia,MARTINS,AVENIDA ENGENHEIRO DINIZ
38400464,-18.909806,-48.284821,MG,Uberlandia,UBERLANDIA,AVENIDA ARAGUARI
38400466,-18.908994,-48.286103,MG,Uberlandia,OSVALDO REZENDE,RUA SACRAMENTO
38400468,-18.912721,-48.300277,MG,Uberlandia,DANIEL FONSECA,AVENIDA ESTRELA DO SUL
38400470,-18.908088,-48.289839,MG,Uberlandia,OSVALDO REZENDE,RUA MONTE CARMELO
38400472,-18.90562,-48.282815,MG,Uberlandia,UBERLANDIA,RUA HIGINO GUERRA
38400474,-18.909177,-48.296616,MG,Uberlandia,OSVALDO REZENDE,RUA INDIANOPOLIS
38400478,-18.904005,-48.282013,MG,Uberlandia,UBERLANDIA,RUA ALDO DE SOUZA
38400480,-18.907475,-48.29403,MG,Uberlandia,OSVALDO REZENDE,RUA IRENE ROSA
38400482,-18.905977,-48.289864,MG,Uberlandia,OSVALDO REZENDE,RUA CONQUISTA
38400484,-18.906904,-48.29428,MG,Uberlandia,OSVALDO REZENDE,RUA ITANHANDU
38400486,-18.905802,-48.293849,MG,Uberlandia,OSVALDO REZENDE,RUA DOUTOR JAIR VIEIRA DA MOTA
38400487,-18.909353,-48.300135,MG,Uberlandia,OSVALDO REZENDE,RUA ANTONIO THOMAZ DE REZENDE
38400488,-18.907043,-48.296335,MG,Uberlandia,UBERLANDIA,AVENIDA PROFESSORA MINERVINA CANDIDA OLIVEIRA
38400490,-18.912769,-48.297257,MG,Uberlandia,OSVALDO REZENDE,RUA AYMORES
38400492,-18.912154,-48.297596,MG,Uberlandia,OSVALDO REZENDE,RUA ESTADOS UNIDOS
38400494,-18.911462,-48.30003,MG,Uberlandia,OSVALDO REZENDE,RUA JOSE THOMAS DE REZENDE
38400496,-18.910855,-48.300393,MG,Uberlandia,OSVALDO REZENDE,RUA ANGELO TESTA
38400498,-18.907457,-48.296705,MG,Uberlandia,OSVALDO REZENDE,PRACA JOSE SILVESTRE COSTA
38400502,-18.906534,-48.291814,MG,Uberlandia,OSVALDO REZENDE,PRACA PROFESSOR REZECK ANDRAUS GASSANI
38400504,-18.912764,-48.277016,MG,Uberlandia,UBERLANDIA,TRAVESSA RICARDO FELICE
38400506,-18.908418,-48.299383,MG,Uberlandia,OSVALDO REZENDE,RUA JOAO THOMAZ DE REZENDE
38400612,-18.911506,-48.271269,MG,Uberlandia,CENTRO,RUA DOS PEREIRAS
38400614,-18.910854,-48.270733,MG,Uberlandia,NOSSA SENHORA APARECIDA,RUA ITUIUTABA
38400616,-18.912852,-48.266993,MG,Uberlandia,NOSSA SENHORA APARECIDA,RUA MIGUEL FELICE
38400617,-18.906131,-48.271701,MG,Uberlandia,NOSSA SENHORA APARECIDA,RUA ITUMBIARA
38400618,-18.910319,-48.270003,MG,Uberlandia,NOSSA SENHORA APARECIDA,RUA TUPACIGUARA
38400619,-18.905797,-48.270708,MG,Uberlandia,NOSSA SENHORA APARECIDA,RUA BURITI ALEGRE
38400620,-18.909491,-48.269765,MG,Uberlandia,NOSSA SENHORA APARECIDA,RUA MONTE ALEGRE
38400621,-18.901725,-48.271608,MG,Uberlandia,NOSSA SENHORA APARECIDA,AVENIDA MONSENHOR EDUARDO
38400622,-18.90919,-48.257731,MG,Uberlandia,NOSSA SENHORA APARECIDA,RUA PRATA
38400624,-18.907682,-48.269393,MG,Uberlandia,NOSSA SENHORA APARECIDA,RUA ITUMBIARA
38400625,-18.905303,-48.275329,MG,Uberlandia,BOM JESUS,RUA COSTA PEREIRA
38400626,-18.905502,-48.27112,MG,Uberlandia,NOSSA SENHORA APARECIDA,RUA BURITI ALEGRE
38400627,-18.90692,-48.275968,MG,Uberlandia,BOM JESUS,RUA CARNEIRO
38400628,-18.905255,-48.27,MG,Uberlandia,BOM JESUS,RUA IVALDO ALVES NASCIMENTO
38400629,-18.906963,-48.274793,MG,Uberlandia,BOM JESUS,RUA TUPACIGUARA
38400630,-18.904045,-48.270274,MG,Uberlandia,NOSSA SENHORA APARECIDA,RUA JERONIMO MARTINS DO NASCIMENTO
38400631,-18.906213,-48.284441,MG,Uberlandia,CAPIM BRANCO,RUA MONTE ALEGRE
38400632,-18.901613,-48.272396,MG,Uberlandia,NOSSA SENHORA APARECIDA,RUA JATAI
38400633,-18.905199,-48.274644,MG,Uberlandia,BOM JESUS,RUA PRATA
38400635,-18.904538,-48.278162,MG,Uberlandia,BOM JESUS,RUA MONTE CARMELO
38400636,-18.90241,-48.268171,MG,Uberlandia,NOSSA SENHORA APARECIDA,RUA ANTONIO CRESCENCIO
38400637,-18.906097,-48.276391,MG,Uberlandia,BOM JESUS,RUA SACRAMENTO
38400638,-18.897447,-48.249955,MG,Uberlandia,MANSOES AEROPORTO,RUA SALVADOR
38400639,-18.900181,-48.273122,MG,Uberlandia,BOM JESUS,RUA NITEROI
38400640,-18.900884,-48.267484,MG,Uberlandia,BOM JESUS,RUA NATAL
38400641,-18.907333,-48.276499,MG,Uberlandia,BOM JESUS,AVENIDA ARAGUARI
38400642,-18.899407,-48.268071,MG,Uberlandia,NOSSA SENHORA APARECIDA,RUA BELEM
38400644,-18.900481,-48.264979,MG,Uberlandia,NOSSA SENHORA APARECIDA,RUA PORTO ALEGRE
38400646,-18.899044,-48.265618,MG,Uberlandia,BRASIL,RUA CURITIBA
38400648,-18.898001,-48.265584,MG,Uberlandia,BRASIL,RUA OSORIO JOSE DA CUNHA
38400650,-18.896891,-48.265811,MG,Uberlandia,BRASIL,RUA RIO GRANDE DO SUL
38400652,-18.895618,-48.266152,MG,Uberlandia,BRASIL,RUA SANTA CATARINA
38400654,-18.895806,-48.264351,MG,Uberlandia,BRASIL,RUA PARANA
38400655,-18.899261,-48.258489,MG,Uberlandia,BRASIL,AVENIDA RONDON PACHECO
38400656,-18.894917,-48.26454,MG,Uberlandia,BRASIL,RUA SAO PAULO
38400658,-18.893479,-48.264818,MG,Uberlandia,BRASIL,RUA RIO DE JANEIRO
38400660,-18.893017,-48.263955,MG,Uberlandia,BRASIL,RUA ESPIRITO SANTO
38400662,-18.892556,-48.263125,MG,Uberlandia,BRASIL,RUA BAHIA
38400664,-18.891935,-48.262556,MG,Uberlandia,BRASIL,RUA CLAUDEMIRO JOSE DE SOUZA
38400666,-18.892633,-48.259974,MG,Uberlandia,BRASIL,RUA ALAGOAS
38400668,-18.89199,-48.259398,MG,Uberlandia,BRASIL,RUA JOSE ALVES GARCIA
38400670,-18.890073,-48.260743,MG,Uberlandia,BRASIL,RUA JOSE REZENDE DOS SANTOS
38400672,-18.88959,-48.259949,MG,Uberlandia,BRASIL,RUA PADRE AMERICO CEPPI
38400673,-18.891193,-48.255707,MG,Uberlandia,BRASIL,RUA CIGANOS DO BRASIL
38400674,-18.887227,-48.262104,MG,Uberlandia,BRASIL,RUA PERNAMBUCO
38400675,-18.892578,-48.253975,MG,Uberlandia,BRASIL,RUA MAX NORDAU DE REZENDE ALVIM
38400677,-18.890204,-48.262822,MG,Uberlandia,BRASIL,TRAVESSA PAPA JOAO PAULO I
38400678,-18.91267,-48.268159,MG,Uberlandia,NOSSA SENHORA APARECIDA,RUA BENJAMIN CONSTANT
38400679,-18.904641,-48.267849,MG,Uberlandia,NOSSA SENHORA APARECIDA,RUA JATAI
38400680,-18.912252,-48.266603,MG,Uberlandia,NOSSA SENHORA APARECIDA,TRAVESSA VERISSIMO
38400681,-18.904813,-48.269107,MG,Uberlandia,NOSSA SENHORA APARECIDA,RUA JERONIMO MARTINS DO NASCIMENTO
38400682,-18.911533,-48.267866,MG,Uberlandia,NOSSA SENHORA APARECIDA,RUA CARLOS MARQUEZ
38400683,-18.905438,-48.269726,MG,Uberlandia,NOSSA SENHORA APARECIDA,RUA IVALDO ALVES NASCIMENTO
38400684,-18.901713,-48.260296,MG,Uberlandia,NOSSA SENHORA APARECIDA,RUA FELICIANO DE MORAIS
38400686,-18.903857,-48.273063,MG,Uberlandia,BOM JESUS,TRAVESSA JOAO DONATO
38400687,-18.908588,-48.276656,MG,Uberlandia,BOM JESUS,AVENIDA ENGENHEIRO DINIZ
38400688,-18.905663,-48.262381,MG,Uberlandia,NOSSA SENHORA APARECIDA,RUA ARTUR GONCALVES DE OLIVEIRA
38400694,-18.907249,-48.265786,MG,Uberlandia,NOSSA SENHORA APARECIDA,AVENIDA CESARIO ALVIM
38400696,-18.898012,-48.259026,MG,Uberlandia,BRASIL,AVENIDA CESARIO ALVIM
38400698,-18.915571,-48.273838,MG,Uberlandia,CENTRO,AVENIDA FLORIANO PEIXOTO
38400700,-19.077674,-48.286118,MG,Uberlandia,UBERLANDIA,ASSENTAMENTO EMILIANO ZAPATA
38400702,-18.905499,-48.266358,MG,Uberlandia,NOSSA SENHORA APARECIDA,AVENIDA FLORIANO PEIXOTO
38400704,-18.899272,-48.261717,MG,Uberlandia,NOSSA SENHORA APARECIDA,AVENIDA FLORIANO PEIXOTO
38400706,-18.910885,-48.272273,MG,Uberlandia,NOSSA SENHORA APARECIDA,AVENIDA AFONSO PENA
38400707,-18.903784,-48.266119,MG,Uberlandia,NOSSA SENHORA APARECIDA,RUA ANTONIO CRESCENCIO
38400708,-18.904569,-48.267508,MG,Uberlandia,NOSSA SENHORA APARECIDA,AVENIDA AFONSO PENA
38400710,-18.902297,-48.265927,MG,Uberlandia,NOSSA SENHORA APARECIDA,AVENIDA AFONSO PENA
38400712,-18.906375,-48.270687,MG,Uberlandia,NOSSA SENHORA APARECIDA,AVENIDA JOAO PINHEIRO
38400714,-18.897396,-48.264047,MG,Uberlandia,BRASIL,AVENIDA JOAO PINHEIRO
38400716,-18.908014,-48.2732,MG,Uberlandia,NOSSA SENHORA APARECIDA,AVENIDA BRASIL
38400718,-18.898832,-48.266276,MG,Uberlandia,BRASIL,AVENIDA BRASIL
38400722,-18.894338,-48.254051,MG,Uberlandia,BRASIL,RUA RICARDO SIQUIEROLLI TUCCI
38400724,-18.899806,-48.268102,MG,Uberlandia,NOSSA SENHORA APARECIDA,AVENIDA MATO GROSSO
38400725,-18.901099,-48.265637,MG,Uberlandia,NOSSA SENHORA APARECIDA,RUA BELEM
38400726,-18.908287,-48.271376,MG,Uberlandia,NOSSA SENHORA APARECIDA,PRACA NOSSA SENHORA APARECIDA
38400728,-18.900889,-48.262189,MG,Uberlandia,BRASIL,TRAVESSA 31 DE AGOSTO
38400730,-18.896811,-48.265248,MG,Uberlandia,BRASIL,TRAVESSA MARIA CONCEICAO BARBOSA
38400731,-18.896534,-48.265645,MG,Uberlandia,BRASIL,AVENIDA MATO GROSSO
38400732,-18.895175,-48.266033,MG,Uberlandia,BRASIL,AVENIDA PROFESSOR JOSE INACIO DE SOUZA
38400734,-18.892969,-48.265739,MG,Uberlandia,BRASIL,AVENIDA AMAZONAS
38400738,-18.892478,-48.26672,MG,Uberlandia,BRASIL,AVENIDA MARANHAO
38400742,-18.891936,-48.269213,MG,Uberlandia,BRASIL,AVENIDA LEVINO DE SOUZA
38400744,-18.887163,-48.266821,MG,Uberlandia,BRASIL,AVENIDA TEREZINA
38400746,-18.899518,-48.280963,MG,Uberlandia,BRASIL,AVENIDA PROFESSORA MINERVINA CANDIDA OLIVEIRA
38400747,-18.903537,-48.277918,MG,Uberlandia,BOM JESUS,RUA INDIANOPOLIS
38400748,-18.902387,-48.272269,MG,Uberlandia,SANTA ROSA,AVENIDA MONSENHOR EDUARDO
38400750,-18.889635,-48.265941,MG,Uberlandia,BRASIL,AVENIDA PARA
38400752,-18.901675,-48.272439,MG,Uberlandia,BOM JESUS,RUA MARCIANO DE AVILA
38400753,-18.905421,-48.277439,MG,Uberlandia,BOM JESUS,AVENIDA ESTRELA DO SUL
38400754,-18.901472,-48.273301,MG,Uberlandia,BOM JESUS,AVENIDA MAUA
38400755,-18.902505,-48.264984,MG,Uberlandia,NOSSA SENHORA APARECIDA,RUA NATAL
38400756,-18.902185,-48.275701,MG,Uberlandia,BOM JESUS,RUA SEBASTIAO DE FREITAS
38400757,-18.903096,-48.266446,MG,Uberlandia,NOSSA SENHORA APARECIDA,RUA SALVADOR
38400758,-18.897228,-48.270826,MG,Uberlandia,BOM JESUS,RUA ATILIO MARTINELLI
38400760,-18.980942,-48.226114,MG,Uberlandia,UBERLANDIA,RODOVIA 050
38400762,-18.902007,-48.274621,MG,Uberlandia,BOM JESUS,RUA BRASILIA
38400766,-18.90283,-48.25983,MG,Uberlandia,NOSSA SENHORA APARECIDA,AVENIDA RONDON PACHECO
38400769,-18.903732,-48.267718,MG,Uberlandia,NOSSA SENHORA APARECIDA,RUA NITEROI
38400772,-18.910316,-48.265176,MG,Uberlandia,NOSSA SENHORA APARECIDA,RUA JOSE ANTONIO TEODORO
38400774,-18.911123,-48.264933,MG,Uberlandia,NOSSA SENHORA APARECIDA,RUA OROZIMBO FERREIRA
38400776,-18.909672,-48.264265,MG,Uberlandia,NOSSA SENHORA APARECIDA,RUA JERONIMO PLACIDO DA SILVA
38400778,-18.910949,-48.26333,MG,Uberlandia,NOSSA SENHORA APARECIDA,RUA TEREZA DOS SANTOS
38400780,-18.910509,-48.263371,MG,Uberlandia,NOSSA SENHORA APARECIDA,RUA OSWALDO CARNEIRO
38400782,-18.909978,-48.263426,MG,Uberlandia,NOSSA SENHORA APARECIDA,RUA PROFESSOR MILTON PORTO
38400784,-18.909452,-48.263498,MG,Uberlandia,NOSSA SENHORA APARECIDA,RUA ANA CARNEIRO
38400785,-18.907495,-48.262892,MG,Uberlandia,NOSSA SENHORA APARECIDA,RUA ADUTORA SAO PEDRO
38400786,-18.909006,-48.265256,MG,Uberlandia,NOSSA SENHORA APARECIDA,PRACA OSVALDO VIEIRA GONCALVES
38401000,-18.894411,-48.289276,MG,Uberlandia,MARAVILHA,RUA SEVERINO VILAS BOAS
38401002,-18.901917,-48.283216,MG,Uberlandia,PRESIDENTE ROOSEVELT,RUA FRANCISCO VIEIRA DE PAIVA
38401004,-18.90097,-48.282959,MG,Uberlandia,PRESIDENTE ROOSEVELT,RUA RUFINA ARANTES
38401006,-18.900012,-48.285456,MG,Uberlandia,PRESIDENTE ROOSEVELT,RUA JOAO JUSTINO FERNANDES
38401007,-18.906013,-48.280091,MG,Uberlandia,PRESIDENTE ROOSEVELT,RUA JOSE ANDRAUS
38401008,-18.897833,-48.284506,MG,Uberlandia,PRESIDENTE ROOSEVELT,RUA ANTONIO CARLOS DE ARAUJO
38401010,-18.902826,-48.285127,MG,Uberlandia,PRESIDENTE ROOSEVELT,RUA ALBERTO DE SOUZA
38401012,-18.900755,-48.284394,MG,Uberlandia,PRESIDENTE ROOSEVELT,RUA CABRAL DE MENEZES
38401013,-18.903701,-48.287238,MG,Uberlandia,PRESIDENTE ROOSEVELT,RUA RODRIGUES DA CUNHA
38401014,-18.899435,-48.283733,MG,Uberlandia,PRESIDENTE ROOSEVELT,RUA CAIRO DO EGITO
38401016,-18.899333,-48.282369,MG,Uberlandia,PRESIDENTE ROOSEVELT,AVENIDA JOAO BERNARDES DE SOUZA
38401018,-18.900701,-48.286543,MG,Uberlandia,PRESIDENTE ROOSEVELT,RUA RODRIGO PEREIRA JUNIOR
38401020,-18.903079,-48.285882,MG,Uberlandia,PRESIDENTE ROOSEVELT,PRACA NOEMIA GONCALVES CARDOSO
38401022,-18.901191,-48.287256,MG,Uberlandia,PRESIDENTE ROOSEVELT,RUA DALMO RUGANI
38401026,-18.90346,-48.288358,MG,Uberlandia,PRESIDENTE ROOSEVELT,RUA CARLOS VILELA MARQUEZ
38401028,-18.902112,-48.288056,MG,Uberlandia,PRESIDENTE ROOSEVELT,RUA ORLANDO DE SOUSA
38401030,-18.899547,-48.287779,MG,Uberlandia,PRESIDENTE ROOSEVELT,RUA ANTONIO BASILIO NUNES
38401032,-18.901983,-48.291417,MG,Uberlandia,PRESIDENTE ROOSEVELT,RUA EMILIA ROSA DA SILVA
38401033,-18.899379,-48.288774,MG,Uberlandia,PRESIDENTE ROOSEVELT,PRACA TOMAZ
38401034,-18.901114,-48.287859,MG,Uberlandia,PRESIDENTE ROOSEVELT,RUA TUFI MAMERI
38401036,-18.903975,-48.292227,MG,Uberlandia,PRESIDENTE ROOSEVELT,RUA OSMAR SALES MONTEIRO
38401038,-18.90312,-48.292934,MG,Uberlandia,PRESIDENTE ROOSEVELT,RUA JOSE SOARES FERREIRA
38401040,-18.901444,-48.291926,MG,Uberlandia,PRESIDENTE ROOSEVELT,RUA CLEZIO MIGUELETO
38401042,-18.900976,-48.289726,MG,Uberlandia,PRESIDENTE ROOSEVELT,RUA LUIZ VISIBELLI
38401044,-18.899244,-48.286832,MG,Uberlandia,PRESIDENTE ROOSEVELT,RUA DOMINGOS ALVARES
38401047,-18.906935,-48.339975,MG,Uberlandia,ASSENTAMENTO TOCANTIS,RUA SEM DENOMINACAO 2
38401048,-18.896464,-48.286789,MG,Uberlandia,PRESIDENTE ROOSEVELT,AVENIDA CESARIO CROSARA
38401050,-18.899917,-48.277091,MG,Uberlandia,PRESIDENTE ROOSEVELT,RUA PROMOTOR OSVALDO AFONSO BORGES
38401052,-18.897707,-48.272715,MG,Uberlandia,PRESIDENTE ROOSEVELT,RUA FREDERICO OZANAN
38401054,-18.902436,-48.290105,MG,Uberlandia,PRESIDENTE ROOSEVELT,RUA MARIO PAFUME
38401056,-18.898944,-48.281503,MG,Uberlandia,PRESIDENTE ROOSEVELT,RUA JOAO BORGES
38401058,-18.897853,-48.281411,MG,Uberlandia,PRESIDENTE ROOSEVELT,RUA GALENO ANDRADE SANTOS
38401060,-18.89832,-48.279464,MG,Uberlandia,PRESIDENTE ROOSEVELT,RUA PIO ALVES BARBOSA
38401062,-18.898916,-48.276786,MG,Uberlandia,PRESIDENTE ROOSEVELT,RUA ERNESTO VICENTINI
38401064,-18.896999,-48.280757,MG,Uberlandia,PRESIDENTE ROOSEVELT,RUA DOUTOR LEOPOLDO DE CASTRO
38401066,-18.897358,-48.277542,MG,Uberlandia,PRESIDENTE ROOSEVELT,RUA JOAO TOBIAS
38401068,-18.895146,-48.276271,MG,Uberlandia,PRESIDENTE ROOSEVELT,RUA GUIDO DEZOTTI
38401070,-18.899106,-48.290172,MG,Uberlandia,PRESIDENTE ROOSEVELT,AVENIDA MARIO NUNES
38401072,-18.898619,-48.291792,MG,Uberlandia,PRESIDENTE ROOSEVELT,RUA ANA OLIVEIRA LAMONACO
38401074,-18.893964,-48.274677,MG,Uberlandia,PRESIDENTE ROOSEVELT,RUA ORLANDO AGUIAR DA SILVA
38401076,-18.895224,-48.274189,MG,Uberlandia,PRESIDENTE ROOSEVELT,RUA RENO PACHECO
38401078,-18.895539,-48.275257,MG,Uberlandia,PRESIDENTE ROOSEVELT,RUA OSCAR MACHADO
38401080,-18.896526,-48.275048,MG,Uberlandia,PRESIDENTE ROOSEVELT,AVENIDA MOACIR LOPES DE CARVALHO
38401081,-18.896221,-48.27788,MG,Uberlandia,PRESIDENTE ROOSEVELT,PRACA CLARINDA DE FREITAS
38401082,-18.897472,-48.274848,MG,Uberlandia,PRESIDENTE ROOSEVELT,RUA RUBENS CHAVES
38401084,-18.896682,-48.274372,MG,Uberlandia,PRESIDENTE ROOSEVELT,RUA CLAUDIO SILVEIRA
38401086,-18.899577,-48.27614,MG,Uberlandia,PRESIDENTE ROOSEVELT,RUA LADARIO CARDOSO
38401088,-18.897084,-48.277151,MG,Uberlandia,PRESIDENTE ROOSEVELT,RUA ADHEMAR MARGONARI
38401089,-18.889241,-48.283029,MG,Uberlandia,PRESIDENTE ROOSEVELT,RUA JOSE VITAL CUNHA
38401090,-18.898672,-48.277851,MG,Uberlandia,PRESIDENTE ROOSEVELT,RUA ALBERTO MARQUES
38401092,-18.898645,-48.27873,MG,Uberlandia,PRESIDENTE ROOSEVELT,AVENIDA ADRIANO BAILONI
38401094,-18.898611,-48.280109,MG,Uberlandia,PRESIDENTE ROOSEVELT,RUA GODOFREDO MACHADO
38401096,-18.897329,-48.28069,MG,Uberlandia,PRESIDENTE ROOSEVELT,RUA ERASMO LOZZI
38401098,-18.896584,-48.28498,MG,Uberlandia,PRESIDENTE ROOSEVELT,AVENIDA MORUM BERNARDINO
38401100,-18.90022,-48.290055,MG,Uberlandia,PRESIDENTE ROOSEVELT,AVENIDA ATLANTICA
38401102,-18.897781,-48.294902,MG,Uberlandia,PRESIDENTE ROOSEVELT,AVENIDA ELPIDIO ARISTIDES DE FREITAS
38401103,-18.895177,-48.294077,MG,Uberlandia,PRESIDENTE ROOSEVELT,RUA DOS CARRILHOS
38401104,-18.902188,-48.29406,MG,Uberlandia,PRESIDENTE ROOSEVELT,RUA MARIO PAGANINI
38401106,-18.901839,-48.292616,MG,Uberlandia,PRESIDENTE ROOSEVELT,PRACA CESAR LATHES
38401108,-18.901315,-48.294031,MG,Uberlandia,PRESIDENTE ROOSEVELT,RUA JOSE LEMOS GARCIA
38401110,-18.891763,-48.302568,MG,Uberlandia,PRESIDENTE ROOSEVELT,RUA FELIPE ATTIE
38401112,-18.900289,-48.294099,MG,Uberlandia,PRESIDENTE ROOSEVELT,RUA PEDRO DAMIS
38401114,-18.898572,-48.289389,MG,Uberlandia,PRESIDENTE ROOSEVELT,RUA PEDRO AMANCIO DIAS
38401116,-18.899507,-48.294133,MG,Uberlandia,PRESIDENTE ROOSEVELT,RUA NATALINA DE CASTRO PEREIRA
38401117,-18.904316,-48.28813,MG,Uberlandia,PRESIDENTE ROOSEVELT,AVENIDA PAULO ROBERTO CUNHA SANTOS
38401118,-18.898282,-48.294058,MG,Uberlandia,PRESIDENTE ROOSEVELT,RUA OLAVO OLIVEIRA MARQUEZ
38401119,-18.902959,-48.284019,MG,Uberlandia,PRESIDENTE ROOSEVELT,AVENIDA CESARIO CROSARA
38401120,-18.897487,-48.294374,MG,Uberlandia,PRESIDENTE ROOSEVELT,RUA ANTONIO CARRIJO
38401122,-18.896661,-48.293926,MG,Uberlandia,PRESIDENTE ROOSEVELT,RUA ANTONIO AUGUSTO CARDOSO
38401124,-18.897322,-48.292362,MG,Uberlandia,PRESIDENTE ROOSEVELT,PRACA GUILHERME DE FREITAS PARAISO
38401126,-18.895806,-48.294266,MG,Uberlandia,PRESIDENTE ROOSEVELT,RUA PEDRO MANSO OLIVEIRA
38401127,-18.901011,-48.295861,MG,Uberlandia,PRESIDENTE ROOSEVELT,AVENIDA CONSTELACAO
38401128,-18.894528,-48.294062,MG,Uberlandia,PRESIDENTE ROOSEVELT,RUA JOAO CLEMENTE DE OLIVEIRA
38401129,-18.902519,-48.287678,MG,Uberlandia,PRESIDENTE ROOSEVELT,RUA TEREZA CROZARA TRONCONI
38401130,-18.894093,-48.293449,MG,Uberlandia,PRESIDENTE ROOSEVELT,RUA RIVELINO TADEU DE JESUS
38401132,-18.893357,-48.293633,MG,Uberlandia,PRESIDENTE ROOSEVELT,RUA IZIDIO ANTONIO DA SILVA
38401134,-18.900382,-48.285211,MG,Uberlandia,PRESIDENTE ROOSEVELT,RUA DONA JOSEFINA DE OLIVEIRA SILVA
38401136,-18.898678,-48.29081,MG,Uberlandia,PRESIDENTE ROOSEVELT,RUA PROFESSOR EURICO SILVA
38401138,-18.895221,-48.290958,MG,Uberlandia,PRESIDENTE ROOSEVELT,RUA SATIRO JOSE DE ARAUJO
38401140,-18.895641,-48.29186,MG,Uberlandia,PRESIDENTE ROOSEVELT,RUA GENTIL MEIRELES
38401142,-18.896489,-48.292164,MG,Uberlandia,PRESIDENTE ROOSEVELT,RUA RAIMUNDO JUSTINO
38401143,-18.894289,-48.290646,MG,Uberlandia,PRESIDENTE ROOSEVELT,RUA EUGENIA CONCEICAO OLIVEIRA
38401144,-18.895425,-48.290176,MG,Uberlandia,PRESIDENTE ROOSEVELT,AVENIDA HAITI
38401146,-18.893211,-48.28802,MG,Uberlandia,PRESIDENTE ROOSEVELT,AVENIDA PARAGUAI
38401148,-18.892427,-48.289684,MG,Uberlandia,PRESIDENTE ROOSEVELT,RUA ELIAS TUFI
38401150,-18.892666,-48.287352,MG,Uberlandia,PRESIDENTE ROOSEVELT,RUA JULIO BORGES SANTANA
38401152,-18.893945,-48.287242,MG,Uberlandia,PRESIDENTE ROOSEVELT,RUA JERONIMO MENDONCA
38401154,-18.89342,-48.286333,MG,Uberlandia,PRESIDENTE ROOSEVELT,RUA TENENTE LUCAS
38401156,-18.894872,-48.287357,MG,Uberlandia,PRESIDENTE ROOSEVELT,AVENIDA PERU
38401158,-18.895195,-48.288621,MG,Uberlandia,PRESIDENTE ROOSEVELT,RUA ANGELINO PAVAN
38401160,-18.896115,-48.288386,MG,Uberlandia,PRESIDENTE ROOSEVELT,RUA JUDITH MOREIRA
38401162,-18.896156,-48.286126,MG,Uberlandia,PRESIDENTE ROOSEVELT,RUA FRANCISCO JORGE
38401164,-18.89762,-48.287091,MG,Uberlandia,PRESIDENTE ROOSEVELT,RUA LEANDRO MARQUEZ
38401166,-18.896924,-48.288102,MG,Uberlandia,PRESIDENTE ROOSEVELT,RUA VIRGILIO MINEIRO
38401168,-18.898003,-48.288886,MG,Uberlandia,PRESIDENTE ROOSEVELT,RUA ARECY CRUVELLO DAVILA
38401170,-18.901842,-48.282898,MG,Uberlandia,PRESIDENTE ROOSEVELT,RUA LUCIANO DO AMARAL
38401172,-18.890667,-48.288703,MG,Uberlandia,PRESIDENTE ROOSEVELT,AVENIDA OLIVIA DE FREITAS GUIMARAES
38401174,-18.890406,-48.28241,MG,Uberlandia,PRESIDENTE ROOSEVELT,RUA FLORENCA
38401176,-18.892619,-48.293117,MG,Uberlandia,PRESIDENTE ROOSEVELT,RUA SILVIO CALEGARI
38401178,-18.893083,-48.292112,MG,Uberlandia,PRESIDENTE ROOSEVELT,RUA GERVAZINO NUNES PINTO
38401180,-18.892172,-48.291837,MG,Uberlandia,PRESIDENTE ROOSEVELT,RUA ISAURA ELIAS RAMOS
38401182,-18.891639,-48.290178,MG,Uberlandia,PRESIDENTE ROOSEVELT,RUA ALCIDES LEITE
38401184,-18.892232,-48.288872,MG,Uberlandia,PRESIDENTE ROOSEVELT,TRAVESSA TREVISO
38401186,-18.893249,-48.290076,MG,Uberlandia,PRESIDENTE ROOSEVELT,RUA FERNANDO ALVES REZENDE
38401188,-18.891409,-48.284322,MG,Uberlandia,PRESIDENTE ROOSEVELT,AVENIDA CESARIO CROSARA
38401190,-18.893211,-48.285525,MG,Uberlandia,PRESIDENTE ROOSEVELT,RUA ORDALIA CARNEIRO DE OLIVEIRA
38401192,-18.890445,-48.285135,MG,Uberlandia,PRESIDENTE ROOSEVELT,RUA ANTONIO PACHECO
38401194,-18.890526,-48.283731,MG,Uberlandia,PRESIDENTE ROOSEVELT,RUA ANTONIO SANTA CECILIA
38401196,-18.889961,-48.283628,MG,Uberlandia,PRESIDENTE ROOSEVELT,RUA ODILON MOREIRA
38401198,-18.889739,-48.28423,MG,Uberlandia,PRESIDENTE ROOSEVELT,RUA JOSE LUCAS MARTINS
38401200,-18.8905,-48.283297,MG,Uberlandia,PRESIDENTE ROOSEVELT,RUA BENEDITO MARTINELLI
38401204,-18.891834,-48.284279,MG,Uberlandia,PRESIDENTE ROOSEVELT,RUA ODORICO ANTONIO LIMA
38401206,-18.891854,-48.284912,MG,Uberlandia,PRESIDENTE ROOSEVELT,RUA DOUGLAS ANDREANI
38401210,-18.892607,-48.284544,MG,Uberlandia,PRESIDENTE ROOSEVELT,RUA ROSARIA RODRIGUES DE QUEIROZ
38401212,-18.894041,-48.284544,MG,Uberlandia,PRESIDENTE ROOSEVELT,RUA CAETANO ALTAFIN
38401214,-18.894847,-48.28481,MG,Uberlandia,PRESIDENTE ROOSEVELT,RUA ALCIDES RODRIGUES GOMES
38401216,-18.893914,-48.283628,MG,Uberlandia,PRESIDENTE ROOSEVELT,RUA AVELINO JORGE DO NASCIMENTO
38401218,-18.893603,-48.282321,MG,Uberlandia,PRESIDENTE ROOSEVELT,RUA PROFESSORA ALFREDINA REZENDE ALVIM
38401220,-18.895184,-48.282632,MG,Uberlandia,PRESIDENTE ROOSEVELT,RUA ALBERTINO SILVA
38401221,-18.895384,-48.283082,MG,Uberlandia,PRESIDENTE ROOSEVELT,RUA ARISTIDES MAGNINO
38401222,-18.895185,-48.280637,MG,Uberlandia,PRESIDENTE ROOSEVELT,RUA DOMINGOS ANTONIO CALABRIA
38401224,-18.894381,-48.281329,MG,Uberlandia,PRESIDENTE ROOSEVELT,RUA PROFESSOR LEONIDAS DE CASTRO SERRA
38401226,-18.894061,-48.2809,MG,Uberlandia,PRESIDENTE ROOSEVELT,RUA LAUDELINO GUERRA
38401228,-18.893347,-48.282357,MG,Uberlandia,PRESIDENTE ROOSEVELT,RUA JOAQUIM CAETANO LELIS
38401230,-18.892583,-48.281576,MG,Uberlandia,PRESIDENTE ROOSEVELT,RUA VENONGERO CABRAL DE MELO
38401232,-18.892662,-48.27911,MG,Uberlandia,PRESIDENTE ROOSEVELT,RUA FERNANDO ALVES VIEIRA
38401234,-18.902732,-48.287162,MG,Uberlandia,PRESIDENTE ROOSEVELT,RUA ANTONINA VASCONCELOS
38401236,-18.894236,-48.27622,MG,Uberlandia,SANTA ROSA,RUA SAO DOMINGOS
38401237,-18.88429,-48.275973,MG,Uberlandia,SANTA ROSA,RUA JOSE DE LOURD SIMAO
38401238,-18.890992,-48.276709,MG,Uberlandia,SANTA ROSA,RUA GUAPORE
38401240,-18.8891,-48.277494,MG,Uberlandia,SANTA ROSA,AVENIDA ALEXANDRINO ALVES VIEIRA
38401241,-18.886514,-48.275079,MG,Uberlandia,SANTA ROSA,RUA ALVARO ALVES PINTO
38401242,-18.892824,-48.277511,MG,Uberlandia,SANTA ROSA,RUA AIRES RIBEIRO
38401243,-18.887251,-48.276628,MG,Uberlandia,SANTA ROSA,RUA WANDER COSTA
38401244,-18.890666,-48.278674,MG,Uberlandia,SANTA ROSA,RUA ALBERTINO RODRIGUES
38401245,-18.886601,-48.276571,MG,Uberlandia,SANTA ROSA,RUA JOAQUIM VIEIRA RAMOS
38401246,-18.892788,-48.277199,MG,Uberlandia,SANTA ROSA,RUA RONDONIA
38401247,-18.885485,-48.274978,MG,Uberlandia,SANTA ROSA,RUA ANGELA ALCKMIN SANTOS
38401248,-18.891433,-48.27838,MG,Uberlandia,PRESIDENTE ROOSEVELT,RUA AMAPA
38401251,-18.884384,-48.274789,MG,Uberlandia,SANTA ROSA,RUA ONESIO NUNES CAIXETA
38401252,-18.890286,-48.279433,MG,Uberlandia,SANTA ROSA,RUA MANAUS
38401253,-18.885985,-48.276435,MG,Uberlandia,SANTA ROSA,RUA CUMARI
38401254,-18.88853,-48.279396,MG,Uberlandia,SANTA ROSA,RUA ARACAJU
38401255,-18.885549,-48.276126,MG,Uberlandia,SANTA ROSA,RUA JOAO QUIRINO DA SILVA
38401256,-18.889356,-48.27678,MG,Uberlandia,SANTA ROSA,RUA MAIPO
38401257,-18.884995,-48.277456,MG,Uberlandia,SANTA ROSA,RUA ONOFRE GONCALVES BATISTA
38401258,-18.88953,-48.279638,MG,Uberlandia,SANTA ROSA,RUA FLORIANOPOLIS
38401260,-18.885465,-48.281395,MG,Uberlandia,SANTA ROSA,AVENIDA OLIMPICA
38401262,-18.889151,-48.275788,MG,Uberlandia,BRASIL,RUA SANTA CATARINA
38401264,-18.886404,-48.278929,MG,Uberlandia,LIBERDADE,RUA NOEL ROSA
38401268,-18.885939,-48.279568,MG,Uberlandia,LIBERDADE,RUA CARTOLA
38401270,-18.884425,-48.279717,MG,Uberlandia,LIBERDADE,RUA LAMARTINE BABO
38401272,-18.883125,-48.279668,MG,Uberlandia,LIBERDADE,RUA ORESTES BARBOSA
38401274,-18.882191,-48.280647,MG,Uberlandia,LIBERDADE,RUA VINICIUS DE MORAIS
38401276,-18.88138,-48.280471,MG,Uberlandia,LIBERDADE,RUA ARI BARROSO
38401278,-18.879998,-48.281269,MG,Uberlandia,LIBERDADE,AVENIDA ELIS REGINA
38401280,-18.883456,-48.278786,MG,Uberlandia,LIBERDADE,RUA PIXINGUINHA
38401282,-18.884073,-48.279329,MG,Uberlandia,LIBERDADE,RUA LUPICINIO RODRIGUES
38401284,-18.880709,-48.279325,MG,Uberlandia,LIBERDADE,RUA ATAULFO ALVES
38401286,-18.882913,-48.279902,MG,Uberlandia,LIBERDADE,RUA MONSUETO
38401288,-18.883701,-48.280468,MG,Uberlandia,LIBERDADE,RUA DOLORES DURAN
38401290,-18.880551,-48.28046,MG,Uberlandia,LIBERDADE,RUA AGOSTINHO DOS SANTOS
38401292,-18.880624,-48.28104,MG,Uberlandia,LIBERDADE,RUA CARMEM MIRANDA
38401294,-18.867292,-48.317269,MG,Uberlandia,UBERLANDIA,ESTRADA DE ACESSO AO RIO UBERABINHA
38401295,-18.887676,-48.277009,MG,Uberlandia,SANTA ROSA,RUA NESTOR ARAUJO DA SILVA
38401296,-18.8809,-48.282187,MG,Uberlandia,LIBERDADE,RUA JACO DO BANDOLIM
38401297,-18.883908,-48.276894,MG,Uberlandia,SANTA ROSA,RUA FRANCELINA VALERIA DO NASCIMENTO
38401299,-18.885036,-48.275857,MG,Uberlandia,SANTA ROSA,RUA VANDERLEI FRANCISCO DA CUNHA
38401300,-18.894614,-48.290326,MG,Uberlandia,PRESIDENTE ROOSEVELT,RUA JOSE ESTEVAM OLIVEIRA
38401302,-18.893537,-48.290474,MG,Uberlandia,PRESIDENTE ROOSEVELT,AVENIDA EQUADOR
38401305,-18.87694,-48.281608,MG,Uberlandia,JARDIM AMERICA I,RUA MARIA CRISTINA COSTA
38401306,-18.877173,-48.282291,MG,Uberlandia,SANTA ROSA,RUA SERGIO PEREIRA DE CARVALHO
38401307,-18.878024,-48.284074,MG,Uberlandia,SANTA ROSA,RUA JOAO HENRIQUE GUIMARAES
38401310,-18.876681,-48.280974,MG,Uberlandia,JARDIM AMERICA I,RUA KATIA REGINA CARDOSO
38401312,-18.876846,-48.281478,MG,Uberlandia,JARDIM AMERICA I,RUA MARIA APARECIDA PEIXOTO
38401314,-18.877739,-48.283489,MG,Uberlandia,SANTA ROSA,RUA VALTAIR PEREIRA PINTO
38401315,-18.865381,-48.292639,MG,Uberlandia,DISTRITO INDUSTRIAL,AVENIDA ANTONIO THOMAS FERREIRA DE REZENDE
38401316,-18.87723,-48.280511,MG,Uberlandia,JARDIM AMERICA I,RUA VICENTINO ROSA
38401318,-18.876664,-48.279294,MG,Uberlandia,JARDIM AMERICA I,RUA NUPOTIRA SALES
38401320,-18.876263,-48.280582,MG,Uberlandia,JARDIM AMERICA I,RUA JERCI RODRIGUES BRAGA
38401322,-18.876117,-48.279837,MG,Uberlandia,JARDIM AMERICA I,RUA FRANCISCO DE ASSIS ROSA
38401324,-18.921908,-48.30616,MG,Uberlandia,JARAGUA,RUA SAMAMBAIA
38401325,-18.909907,-48.301798,MG,Uberlandia,OSVALDO REZENDE,RUA ANTONIO THOMAZ DE REZENDE
38401328,-18.907121,-48.303908,MG,Uberlandia,JARDIM BRASILIA,RUA JOSE CUPERTINO
38401330,-18.907193,-48.302724,MG,Uberlandia,JARDIM BRASILIA,RUA URIAS RODRIGUES DA CUNHA
38401332,-18.906408,-48.302981,MG,Uberlandia,JARDIM BRASILIA,AVENIDA MOISES DE FREITAS
38401334,-18.906548,-48.303619,MG,Uberlandia,JARDIM BRASILIA,PRACA AGRIPINO AUGUSTO SILVA
38401336,-18.905347,-48.302716,MG,Uberlandia,JARDIM BRASILIA,RUA VICENTE FERREIRA GUIMARAES
38401338,-18.906436,-48.302357,MG,Uberlandia,JARDIM BRASILIA,RUA AVELINO JOSE SOUZA
38401340,-18.905387,-48.303806,MG,Uberlandia,JARDIM BRASILIA,RUA JERONIMO ARANTES
38401342,-18.904579,-48.303084,MG,Uberlandia,JARDIM BRASILIA,RUA OTAVIANO CARDOSO MIRANDA
38401344,-18.900519,-48.308353,MG,Uberlandia,SAO JOSE,AVENIDA CORONEL JOSE TEOFILO CARNEIRO
38401346,-18.89409,-48.314527,MG,Uberlandia,SAO JOSE,RUA PIRATININGA
38401350,-18.894807,-48.314819,MG,Uberlandia,SAO JOSE,RUA BASALTO
38401352,-18.9044,-48.314249,MG,Uberlandia,TAIAMAN,AVENIDA UBERABINHA
38401354,-18.894004,-48.314746,MG,Uberlandia,SAO JOSE,RUA BEIRA RIO
38401356,-18.90397,-48.300242,MG,Uberlandia,JARDIM BRASILIA,RUA EURIPEDES BARSANULFO
38401358,-18.90481,-48.301927,MG,Uberlandia,JARDIM BRASILIA,RUA PEDRO BRANCO DE SOUSA
38401360,-18.905157,-48.300719,MG,Uberlandia,JARDIM BRASILIA,RUA FRANCISCO BERNARDES ASSIS
38401362,-18.904878,-48.297192,MG,Uberlandia,JARDIM BRASILIA,RUA EUCLIDES DOS SANTOS
38401364,-18.905069,-48.296395,MG,Uberlandia,JARDIM BRASILIA,RUA BAURU
38401366,-18.904482,-48.296952,MG,Uberlandia,JARDIM BRASILIA,RUA JAU
38401368,-18.903979,-48.297642,MG,Uberlandia,JARDIM BRASILIA,RUA ITU
38401370,-18.903391,-48.297616,MG,Uberlandia,JARDIM BRASILIA,RUA SATELITE
38401372,-18.903272,-48.300161,MG,Uberlandia,JARDIM BRASILIA,RUA URANO
38401374,-18.902727,-48.300738,MG,Uberlandia,JARDIM BRASILIA,RUA JUPITER
38401376,-18.905541,-48.302394,MG,Uberlandia,JARDIM BRASILIA,RUA OSVALDO REZENDE
38401378,-18.906331,-48.300953,MG,Uberlandia,JARDIM BRASILIA,RUA ANISIO GOMES MACHADO
38401380,-18.90691,-48.300589,MG,Uberlandia,JARDIM BRASILIA,RUA MODESTA CANDIDA PEREIRA
38401382,-18.902146,-48.301173,MG,Uberlandia,JARDIM BRASILIA,RUA VENUS
38401384,-18.901418,-48.300815,MG,Uberlandia,JARDIM BRASILIA,RUA CAPELA
38401386,-18.900769,-48.300948,MG,Uberlandia,JARDIM BRASILIA,RUA MARTE
38401388,-18.900125,-48.301167,MG,Uberlandia,JARDIM BRASILIA,AVENIDA DAS MAES
38401390,-18.899504,-48.301482,MG,Uberlandia,JARDIM BRASILIA,RUA SATURNO
38401392,-18.898809,-48.301307,MG,Uberlandia,JARDIM BRASILIA,RUA CRUZEIRO DO SUL
38401394,-18.8976,-48.299494,MG,Uberlandia,JARDIM BRASILIA,RUA PLUTAO
38401396,-18.897507,-48.301384,MG,Uberlandia,JARDIM BRASILIA,RUA NETUNO
38401398,-18.896783,-48.301107,MG,Uberlandia,JARDIM BRASILIA,RUA INTERPLANETARIA
38401399,-18.89668,-48.302271,MG,Uberlandia,JARDIM BRASILIA,TRAVESSA LUNAR
38401400,-18.89593,-48.300312,MG,Uberlandia,JARDIM BRASILIA,RUA UNIVERSAL
38401402,-18.895328,-48.300662,MG,Uberlandia,JARDIM BRASILIA,RUA MUNDIAL
38401404,-18.894741,-48.30099,MG,Uberlandia,JARDIM BRASILIA,RUA CAPRICORNIO
38401406,-18.894059,-48.300917,MG,Uberlandia,JARDIM BRASILIA,RUA HERCULES
38401408,-18.892732,-48.29851,MG,Uberlandia,JARDIM BRASILIA,RUA ZENITH
38401410,-18.892513,-48.300648,MG,Uberlandia,JARDIM BRASILIA,AVENIDA RURAL
38401412,-18.892411,-48.304361,MG,Uberlandia,JARDIM BRASILIA,RUA AQUARIO
38401414,-18.891486,-48.308467,MG,Uberlandia,JARDIM BRASILIA,RUA DOS TROPICOS
38401416,-18.9009,-48.305802,MG,Uberlandia,JARDIM BRASILIA,RUA GLOBO
38401418,-18.902742,-48.304975,MG,Uberlandia,JARDIM BRASILIA,RUA DO SOL
38401420,-18.897353,-48.304821,MG,Uberlandia,JARDIM BRASILIA,RUA MERCURIO
38401424,-18.89873,-48.302406,MG,Uberlandia,JARDIM BRASILIA,RUA NETUNO
38401426,-18.897925,-48.300513,MG,Uberlandia,JARDIM BRASILIA,AVENIDA DOUTOR BEZERRA DE MENEZES
38401428,-18.898,-48.298349,MG,Uberlandia,JARDIM BRASILIA,RUA ESTRELA DALVA
38401430,-18.89942,-48.297711,MG,Uberlandia,JARDIM BRASILIA,PRACA DA FRATERNIDADE
38401432,-18.901626,-48.296149,MG,Uberlandia,JARDIM BRASILIA,RUA TRES MARIAS
38401434,-18.891738,-48.297689,MG,Uberlandia,JARDIM BRASILIA,RUA COMETA
38401436,-18.896275,-48.295975,MG,Uberlandia,JARDIM BRASILIA,RUA ASTRAL
38401438,-18.892032,-48.305004,MG,Uberlandia,JARDIM BRASILIA,RUA ARIES
38401440,-18.890467,-48.292706,MG,Uberlandia,MARAVILHA,RUA SIMAO CANENITA
38401441,-18.896704,-48.295571,MG,Uberlandia,JARDIM BRASILIA,AVENIDA CONSTELACAO
38401442,-18.88979,-48.29322,MG,Uberlandia,MARAVILHA,RUA BARTOLOMEU
38401444,-18.889337,-48.297508,MG,Uberlandia,MARAVILHA,RUA PAULO DE TARSO
38401446,-18.88845,-48.293438,MG,Uberlandia,MARAVILHA,RUA LEBEU
38401448,-18.888238,-48.294182,MG,Uberlandia,MARAVILHA,RUA FELIPE
38401450,-18.887723,-48.295452,MG,Uberlandia,MARAVILHA,RUA ANDRE
38401452,-18.888416,-48.297479,MG,Uberlandia,MARAVILHA,RUA JOAO EVANGELISTA
38401454,-18.887806,-48.297727,MG,Uberlandia,MARAVILHA,RUA TOME
38401456,-18.88714,-48.297868,MG,Uberlandia,MARAVILHA,RUA TIAGO
38401458,-18.887021,-48.299347,MG,Uberlandia,MARAVILHA,RUA MATEUS
38401460,-18.886044,-48.299289,MG,Uberlandia,MARAVILHA,RUA DOM BOSCO
38401462,-18.888232,-48.298671,MG,Uberlandia,MARAVILHA,RUA SEVERINO VILAS BOAS
38401464,-18.884438,-48.297953,MG,Uberlandia,MARAVILHA,RUA MANOEL MAURICIO ARAUJO
38401466,-18.884049,-48.299428,MG,Uberlandia,MARAVILHA,RUA JOAQUIM CLEMENTE OLIVEIRA
38401467,-18.884735,-48.298721,MG,Uberlandia,MARAVILHA,RUA ANTONIO TEIXEIRA DE MOURA
38401468,-18.883502,-48.300008,MG,Uberlandia,MARAVILHA,RUA MARIA CLEMENTE OLIVEIRA
38401469,-18.890698,-48.300745,MG,Uberlandia,MARAVILHA,RUA FERNANDA OLIVEIRA PRADO
38401470,-18.882793,-48.29996,MG,Uberlandia,MARAVILHA,RUA HELENA VILAS BOAS
38401472,-18.882218,-48.300406,MG,Uberlandia,MARAVILHA,RUA LUIZA PEREIRA
38401473,-18.893748,-48.297189,MG,Uberlandia,JARDIM BRASILIA,RUA COMETA
38401474,-18.885813,-48.302066,MG,Uberlandia,MARAVILHA,RUA PROFESSOR ALEIXO JOSE FERREIRA
38401476,-18.886273,-48.294953,MG,Uberlandia,MARAVILHA,RUA SIMAO PEDRO
38401478,-18.894247,-48.29534,MG,Uberlandia,PRESIDENTE ROOSEVELT,AVENIDA CONSTELACAO
38401480,-18.893853,-48.294942,MG,Uberlandia,PRESIDENTE ROOSEVELT,RUA BEIRUTE
38401482,-18.889979,-48.288147,MG,Uberlandia,PACAEMBU,RUA PIO ANTONIO DE OLIVEIRA
38401483,-18.894565,-48.289839,MG,Uberlandia,PRESIDENTE ROOSEVELT,AVENIDA CESARIO CROSARA
38401486,-18.889244,-48.287708,MG,Uberlandia,PACAEMBU,RUA ROMANO CECILIO
38401488,-18.888807,-48.288221,MG,Uberlandia,PACAEMBU,RUA SADY CARNOT ALVES
38401490,-18.888372,-48.288691,MG,Uberlandia,PACAEMBU,RUA SEVERINO HERMINIO AZEVEDO
38401492,-18.889027,-48.290811,MG,Uberlandia,PACAEMBU,RUA MARCO ANTONIO DOS SANTOS
38401494,-18.889702,-48.290765,MG,Uberlandia,PACAEMBU,RUA LUIZ CARLOS PRESTES
38401496,-18.889411,-48.289795,MG,Uberlandia,PACAEMBU,RUA GERSON PEREIRA
38401498,-18.888241,-48.290073,MG,Uberlandia,PACAEMBU,RUA ANTONIO DE OLIVEIRA SILVA
38401500,-18.888182,-48.291699,MG,Uberlandia,PACAEMBU,RUA ORLANDO GRANDI
38401502,-18.887706,-48.292104,MG,Uberlandia,PACAEMBU,RUA MARIA JOSE DA CONCEICAO
38401504,-18.887268,-48.292564,MG,Uberlandia,PACAEMBU,RUA ARDUINO GRANDI
38401506,-18.887129,-48.29049,MG,Uberlandia,PACAEMBU,RUA WILSON PANTALEAO DE OLIVEIRA
38401507,-18.889934,-48.289791,MG,Uberlandia,PACAEMBU,RUA MARIA ABRAO CALIL
38401508,-18.886991,-48.289483,MG,Uberlandia,PACAEMBU,RUA ABILIA FERREIRA DINIZ
38401510,-18.887388,-48.29103,MG,Uberlandia,PACAEMBU,RUA RUBENS DE FREITAS
38401512,-18.886528,-48.292114,MG,Uberlandia,PACAEMBU,RUA VIRGILINA LAUDELINA MARTINS
38401514,-18.885253,-48.291873,MG,Uberlandia,PACAEMBU,RUA TONICO CARRIJO
38401515,-18.886524,-48.288233,MG,Uberlandia,PACAEMBU,RUA QUATORZE DE JULHO
38401516,-18.885937,-48.293289,MG,Uberlandia,PACAEMBU,RUA MARIA AUGUSTA MACHADO
38401518,-18.886244,-48.293837,MG,Uberlandia,PACAEMBU,RUA JOSE CAFELISTA
38401520,-18.885146,-48.293634,MG,Uberlandia,PACAEMBU,RUA DA CEREJA
38401522,-18.884658,-48.293888,MG,Uberlandia,PACAEMBU,RUA DA MACA
38401524,-18.884218,-48.294211,MG,Uberlandia,PACAEMBU,RUA DO CAJU
38401526,-18.883681,-48.294344,MG,Uberlandia,PACAEMBU,RUA DA PITANGA
38401528,-18.883025,-48.294054,MG,Uberlandia,PACAEMBU,RUA DO MARACUJA
38401529,-18.883138,-48.295731,MG,Uberlandia,PACAEMBU,RUA MARIA GROSSI RANIERO
38401530,-18.885127,-48.301257,MG,Uberlandia,MARAVILHA,RUA MANOEL MAURICIO ARAUJO
38401532,-18.882495,-48.295924,MG,Uberlandia,PACAEMBU,RUA DA AMORA
38401534,-18.882046,-48.296359,MG,Uberlandia,PACAEMBU,RUA DA AMEIXA
38401536,-18.881953,-48.296981,MG,Uberlandia,PACAEMBU,RUA DO MORANGO
38401538,-18.881872,-48.297777,MG,Uberlandia,PACAEMBU,RUA DO MARMELO
38401540,-18.881582,-48.29832,MG,Uberlandia,PACAEMBU,RUA DO PESSEGO
38401542,-18.881223,-48.298782,MG,Uberlandia,PACAEMBU,RUA DA GOIABA
38401543,-18.880946,-48.29486,MG,Uberlandia,PACAEMBU,AVENIDA SETE DE SETEMBRO
38401544,-18.881253,-48.299893,MG,Uberlandia,PACAEMBU,RUA NINFA ARAUJO
38401545,-18.88785,-48.284077,MG,Uberlandia,PACAEMBU,AVENIDA CLEANTO VIEIRA GONCALVES
38401546,-18.880692,-48.296923,MG,Uberlandia,PACAEMBU,RUA DO CONDE
38401549,-18.870536,-48.298583,MG,Uberlandia,PACAEMBU,RUA SAO JOAO
38401550,-18.888751,-48.28502,MG,Uberlandia,PACAEMBU,RUA RUBENS CAZABONA
38401552,-18.88822,-48.285724,MG,Uberlandia,PACAEMBU,RUA TREZE DE MAIO
38401554,-18.886657,-48.287063,MG,Uberlandia,PACAEMBU,RUA SETE DE MARCO
38401556,-18.885486,-48.288255,MG,Uberlandia,PACAEMBU,RUA SETE DE JUNHO
38401558,-18.883884,-48.290077,MG,Uberlandia,PACAEMBU,RUA PRIMEIRO DE MAIO
38401559,-18.884636,-48.288467,MG,Uberlandia,PACAEMBU,RUA MARCILIO SEVERINO OLIVEIRA
38401560,-18.88289,-48.291288,MG,Uberlandia,PACAEMBU,RUA DEZOITO DE ABRIL
38401562,-18.881093,-48.292808,MG,Uberlandia,PACAEMBU,RUA ANDRE LUIZ
38401563,-18.892641,-48.287945,MG,Uberlandia,PRESIDENTE ROOSEVELT,RUA JULIO BORGES SANTANA
38401564,-18.879341,-48.294445,MG,Uberlandia,PACAEMBU,RUA VINTE E CINCO DE DEZEMBRO
38401566,-18.878155,-48.295224,MG,Uberlandia,JARDIM AMERICA II,RUA PRIMEIRO DE JANEIRO
38401568,-18.885216,-48.290347,MG,Uberlandia,PACAEMBU,RUA SETE DE SETEMBRO
38401570,-18.883105,-48.291736,MG,Uberlandia,PACAEMBU,RUA QUATORZE DE JULHO
38401572,-18.887609,-48.286188,MG,Uberlandia,PACAEMBU,PRACA SAO JOAO
38401573,-18.909764,-48.212779,MG,Uberlandia,DOM ALMIR,AVENIDA ANTONIO JOAQUIM DA SILVA
38401574,-18.882969,-48.289952,MG,Uberlandia,PACAEMBU,RUA VINTE UM DE ABRIL
38401575,-18.90985,-48.212654,MG,Uberlandia,DOM ALMIR,AVENIDA RIGOLETO FIDALE
38401576,-18.883533,-48.288366,MG,Uberlandia,SANTA ROSA,AVENIDA CLEANTO VIEIRA GONCALVES
38401578,-18.876438,-48.295139,MG,Uberlandia,RESIDENCIAL GRAMADO,ALAMEDA MARIA DA LUZ FERREIRA
38401579,-18.873323,-48.291743,MG,Uberlandia,RESIDENCIAL GRAMADO,RUA JAIME AGOSTINHO
38401580,-18.876173,-48.294501,MG,Uberlandia,RESIDENCIAL GRAMADO,ALAMEDA LIOMAR ALVES DA FONSECA
38401581,-18.873572,-48.292259,MG,Uberlandia,RESIDENCIAL GRAMADO,ALAMEDA ONOFRE CARDOSO DA SILVA
38401582,-18.876228,-48.293855,MG,Uberlandia,RESIDENCIAL GRAMADO,RUA AUDINA CARRIJO
38401583,-18.873866,-48.292788,MG,Uberlandia,RESIDENCIAL GRAMADO,ALAMEDA W 22
38401584,-18.875661,-48.293187,MG,Uberlandia,RESIDENCIAL GRAMADO,ALAMEDA EPAMINONDA SILVEIRA
38401585,-18.874185,-48.293313,MG,Uberlandia,RESIDENCIAL GRAMADO,ALAMEDA JOAQUIM MODESTO DOS SANTOS
38401586,-18.875511,-48.292548,MG,Uberlandia,RESIDENCIAL GRAMADO,ALAMEDA IVAN FAGUNDES
38401587,-18.874626,-48.293791,MG,Uberlandia,RESIDENCIAL GRAMADO,ALAMEDA SAUL PINHEIRO BARBOSA
38401588,-18.875507,-48.291949,MG,Uberlandia,RESIDENCIAL GRAMADO,ALAMEDA GERALDA DE FREITAS
38401589,-18.874837,-48.294339,MG,Uberlandia,RESIDENCIAL GRAMADO,RUA PROFESSOR THEOTONIO DE MENDONCA RIBEIRO
38401590,-18.874248,-48.289911,MG,Uberlandia,RESIDENCIAL GRAMADO,ALAMEDA GEORGINA GARCIA RODRIGUES
38401591,-18.875272,-48.294794,MG,Uberlandia,RESIDENCIAL GRAMADO,RUA RITA MATIAS
38401592,-18.873718,-48.289482,MG,Uberlandia,RESIDENCIAL GRAMADO,RUA PROFESSORA ALYRIA DANTAS RUAS
38401593,-18.875685,-48.295324,MG,Uberlandia,RESIDENCIAL GRAMADO,AVENIDA CARLOS HENRIQUE TASSIN
38401594,-18.872833,-48.288552,MG,Uberlandia,RESIDENCIAL GRAMADO,ALAMEDA JOAO BATISTA REZENDE
38401596,-18.872805,-48.288535,MG,Uberlandia,RESIDENCIAL GRAMADO,ALAMEDA LAURA DE FARIA SANTOS
38401600,-18.87214,-48.287518,MG,Uberlandia,RESIDENCIAL GRAMADO,ALAMEDA ANTONIO FRANCISCO DE PAULA
38401602,-18.871829,-48.287004,MG,Uberlandia,RESIDENCIAL GRAMADO,ALAMEDA MARIO CASASANTA PEREIRA
38401604,-18.87155,-48.286499,MG,Uberlandia,RESIDENCIAL GRAMADO,ALAMEDA IRACEMA SUSSTRUNK DA SILVA
38401606,-18.873042,-48.290141,MG,Uberlandia,RESIDENCIAL GRAMADO,RUA NEUZA MAGNINO CARDOSO
38401608,-18.870721,-48.28768,MG,Uberlandia,RESIDENCIAL GRAMADO,ALAMEDA DJALMA DIAS DE MORAES
38401610,-18.870661,-48.288294,MG,Uberlandia,RESIDENCIAL GRAMADO,ALAMEDA CESAR AUGUSTO FARIA
38401612,-18.870972,-48.288776,MG,Uberlandia,RESIDENCIAL GRAMADO,ALAMEDA VICENTE PAULO AFONSO
38401614,-18.871326,-48.289283,MG,Uberlandia,RESIDENCIAL GRAMADO,ALAMEDA W OITO
38401618,-18.871964,-48.290002,MG,Uberlandia,RESIDENCIAL GRAMADO,ALAMEDA TEREZINHA BEZERRA PEREIRA
38401620,-18.872593,-48.290729,MG,Uberlandia,RESIDENCIAL GRAMADO,RUA ANTONIA GREZZI TRONCONI
38401622,-18.872938,-48.291249,MG,Uberlandia,RESIDENCIAL GRAMADO,ALAMEDA MARIO CARDOSO DA SILVA
38401625,-18.875827,-48.295924,MG,Uberlandia,RESIDENCIAL GRAMADO,AVENIDA CARLOS HENRIQUE TASSIN
38401626,-18.875862,-48.291607,MG,Uberlandia,RESIDENCIAL GRAMADO,RUA ELCO JOSE DE FREITAS
38401628,-18.888223,-48.323153,MG,Uberlandia,RESIDENCIAL GRAMADO,PRACA COMENDADOR TUFFIC ISSA
38401646,-18.901579,-48.306858,MG,Uberlandia,JARDIM BRASILIA,RUA JOSE PEREIRA
38401648,-18.902065,-48.30644,MG,Uberlandia,JARDIM BRASILIA,AVENIDA LIGIA NEVES PINTO
38401652,-18.900957,-48.306906,MG,Uberlandia,JARDIM BRASILIA,RUA FARID JORGE
38401654,-18.900359,-48.307068,MG,Uberlandia,JARDIM BRASILIA,RUA REALINO FRANCISCO DA COSTA
38401656,-18.899507,-48.306892,MG,Uberlandia,JARDIM BRASILIA,RUA CARLITO COELHO DIAS
38401658,-18.898996,-48.307139,MG,Uberlandia,JARDIM BRASILIA,RUA MARIO RIBEIRO DOS SANTOS
38401659,-18.900722,-48.304039,MG,Uberlandia,JARDIM BRASILIA,PRACA TANCREDO SILVA PINTO
38401660,-18.898583,-48.30754,MG,Uberlandia,JARDIM BRASILIA,RUA ANTONIO EURIPEDES SUPRIANO
38401662,-18.898083,-48.307831,MG,Uberlandia,JARDIM BRASILIA,RUA DELFINA ALMEIDA
38401664,-18.897651,-48.308222,MG,Uberlandia,JARDIM BRASILIA,RUA PROFESSORA CELEIDA SANTOS DE PAULA
38401666,-18.898405,-48.309822,MG,Uberlandia,JARDIM BRASILIA,RUA ALCEU FATURETO
38401668,-18.897188,-48.308535,MG,Uberlandia,JARDIM BRASILIA,RUA MARCO AURELIO PEREIRA
38401674,-18.896227,-48.308199,MG,Uberlandia,JARDIM BRASILIA,RUA MARIA ABADIA SILVA
38401676,-18.895311,-48.307873,MG,Uberlandia,JARDIM BRASILIA,RUA JOANA MARCELINA DE ALCANTARA
38401678,-18.897532,-48.31005,MG,Uberlandia,JARDIM BRASILIA,RUA MARIA HELENA DE SOUSA
38401680,-18.89457,-48.308809,MG,Uberlandia,JARDIM BRASILIA,RUA SEBASTIAO MARTINS DA SILVA
38401686,-18.886702,-48.293993,MG,Uberlandia,PACAEMBU,RUA CARMEM MOURA MATIAS
38401688,-18.886289,-48.294332,MG,Uberlandia,PACAEMBU,RUA SEBASTIAO PROCOPIO DA SILVA
38401690,-18.885814,-48.294615,MG,Uberlandia,PACAEMBU,RUA BASILIO DE AQUINO LOPES
38401692,-18.885696,-48.291328,MG,Uberlandia,PACAEMBU,RUA EDISE CARDOSO MOREIRA
38401694,-18.884523,-48.289358,MG,Uberlandia,PACAEMBU,PRACA SAO JOAO
38401700,-18.877595,-48.282648,MG,Uberlandia,SANTA ROSA,RUA GUIOMAR LINO MOREIRA
38401704,-18.873149,-48.280333,MG,Uberlandia,NOSSA SENHORA DAS GRACAS,RUA LUIZ SIQUIEROLI
38401706,-18.872846,-48.27922,MG,Uberlandia,NOSSA SENHORA DAS GRACAS,RUA ARCIRIO CARDOSO DA SILVA
38401708,-18.872193,-48.282716,MG,Uberlandia,NOSSA SENHORA DAS GRACAS,AVENIDA DOS SIQUIEROLI
38401709,-18.884092,-48.283943,MG,Uberlandia,JARDIM AMERICA II,RUA VINICIUS DE MORAIS
38401710,-18.876545,-48.284873,MG,Uberlandia,SANTA ROSA,AVENIDA NOSSA SENHORA DO CARMO
38401711,-18.88506,-48.281145,MG,Uberlandia,SANTA ROSA,AVENIDA OLIMPICA
38401712,-18.874867,-48.282772,MG,Uberlandia,SANTA ROSA,AVENIDA JOSE DE CASTRO BISPO
38401714,-18.878365,-48.284628,MG,Uberlandia,SANTA ROSA,RUA LEILA MARIA DE OLIVEIRA REIS
38401720,-18.889667,-48.280978,MG,Uberlandia,SANTA ROSA,RUA EVERSON ROBERTO DE SOUZA
38401721,-18.886501,-48.285585,MG,Uberlandia,JARDIM AMERICA II,AVENIDA CLEANTO VIEIRA GONCALVES
38401722,-18.889119,-48.28125,MG,Uberlandia,SANTA ROSA,RUA JOSE JULIO DE SOUZA
38401724,-18.888334,-48.281248,MG,Uberlandia,SANTA ROSA,RUA JOSE PEDRO MENDONCA
38401726,-18.88795,-48.281646,MG,Uberlandia,SANTA ROSA,RUA ANTENOR RANGEL
38401728,-18.887374,-48.281824,MG,Uberlandia,SANTA ROSA,RUA THAIS RODRIGUES
38401730,-18.888252,-48.273941,MG,Uberlandia,COALBRA,FAZENDA SAO FRANCISCO
38401732,-18.886559,-48.282673,MG,Uberlandia,JARDIM AMERICA II,RUA MARIO ZARA
38401734,-18.88672,-48.283682,MG,Uberlandia,JARDIM AMERICA II,RUA CLEDISSON GARCIA PIRES
38401738,-18.885945,-48.284493,MG,Uberlandia,JARDIM AMERICA II,RUA FAIDE JOAO PEREIRA
38401740,-18.885555,-48.284978,MG,Uberlandia,JARDIM AMERICA II,RUA ADILSON DO CARMO MARQUES
38401742,-18.884904,-48.281747,MG,Uberlandia,JARDIM AMERICA II,RUA ALTAMIRANDO DANTAS RUAS
38401744,-18.884427,-48.282016,MG,Uberlandia,JARDIM AMERICA II,RUA FRANCISCO ASSIS DE OLIVEIRA
38401746,-18.883961,-48.282463,MG,Uberlandia,JARDIM AMERICA II,RUA SINCERO BORGES DA SILVA
38401748,-18.883362,-48.282584,MG,Uberlandia,JARDIM AMERICA II,RUA FRANCISCO GOMES SOBRINHO
38401750,-18.885129,-48.282384,MG,Uberlandia,JARDIM AMERICA II,RUA FABIO MASINI
38401752,-18.885307,-48.283087,MG,Uberlandia,JARDIM AMERICA II,RUA ETTORE MASINI
38401754,-18.885798,-48.283334,MG,Uberlandia,JARDIM AMERICA II,RUA ALCIDES GIL DE SOUZA
38401756,-18.884519,-48.285625,MG,Uberlandia,JARDIM AMERICA II,RUA MOZART MELAZO
38401760,-18.883716,-48.286414,MG,Uberlandia,JARDIM AMERICA II,RUA MAESTRO ALYRIO FRANCA
38401762,-18.883392,-48.286975,MG,Uberlandia,JARDIM AMERICA II,RUA JOANA CECCON SCHIAVINATO
38401766,-18.88257,-48.287721,MG,Uberlandia,JARDIM AMERICA II,RUA JOZINO PEREIRA CARRIJO
38401768,-18.881107,-48.286967,MG,Uberlandia,JARDIM AMERICA II,RUA EMILIA FERNANDES DE BRITO
38401770,-18.881848,-48.288661,MG,Uberlandia,JARDIM AMERICA II,RUA PEDRO MACEDO DA COSTA
38401772,-18.881348,-48.288993,MG,Uberlandia,JARDIM AMERICA II,RUA MARIA AMELIA CARRIJO
38401774,-18.880923,-48.289358,MG,Uberlandia,JARDIM AMERICA II,RUA EDSON BERNARDINO SILVA
38401776,-18.87985,-48.289794,MG,Uberlandia,JARDIM AMERICA II,RUA ADAO ELIAS RODRIGUES
38401778,-18.882406,-48.283332,MG,Uberlandia,LIBERDADE,RUA IVANETE ALVES CARVALHO
38401780,-18.881917,-48.283627,MG,Uberlandia,LIBERDADE,RUA DIVINO CARVALHO
38401782,-18.881575,-48.283991,MG,Uberlandia,LIBERDADE,RUA WILSON JOSE SOARES
38401784,-18.880988,-48.284328,MG,Uberlandia,LIBERDADE,RUA IVAN ALVES CARVALHO
38401786,-18.880571,-48.284712,MG,Uberlandia,JARDIM AMERICA II,RUA ATALIBA MOREIRA
38401788,-18.880459,-48.285429,MG,Uberlandia,JARDIM AMERICA II,RUA OLIVIA ALMEIDA E SILVA
38401790,-18.880052,-48.2866,MG,Uberlandia,JARDIM AMERICA II,RUA KENIA CASSIA DIAS
38401792,-18.879669,-48.287131,MG,Uberlandia,JARDIM AMERICA II,RUA NAIR VIANA DINIZ
38401794,-18.881434,-48.287221,MG,Uberlandia,JARDIM BRASILIA,RUA PLUTAO
38401796,-18.880159,-48.287938,MG,Uberlandia,JARDIM AMERICA II,RUA ANTONIO DE OLIVEIRA GOUVEIA
38401798,-18.881432,-48.287512,MG,Uberlandia,JARDIM AMERICA II,RUA YOLANDA RIBEIRO CUNHA
38401799,-18.876109,-48.288323,MG,Uberlandia,JARDIM AMERICA I,AVENIDA ANALIA RESENDE SIQUIEROLI
38401800,-18.878631,-48.291039,MG,Uberlandia,JARDIM AMERICA II,RUA CLARIMUNDO JOSE CARDOSO
38401802,-18.878366,-48.291616,MG,Uberlandia,JARDIM AMERICA II,RUA TEREZINHA DE JESUS SILVEIRA
38401804,-18.877989,-48.29203,MG,Uberlandia,JARDIM AMERICA II,RUA GERALDO COELHO NOGUEIRA
38401806,-18.877804,-48.292698,MG,Uberlandia,JARDIM AMERICA II,RUA ERNESTO CELESTINO
38401808,-18.877508,-48.293183,MG,Uberlandia,JARDIM AMERICA II,RUA BENEDITO PEREIRA ROCHA
38401810,-18.878606,-48.288393,MG,Uberlandia,JARDIM AMERICA II,RUA JOSE EDUARDO GADIA
38401814,-18.880501,-48.289763,MG,Uberlandia,JARDIM AMERICA II,RUA ALCIDES JOSE BORGES
38401816,-18.88955,-48.283699,MG,Uberlandia,PRESIDENTE ROOSEVELT,RUA ABILIO COURY
38401818,-18.899503,-48.295357,MG,Uberlandia,PRESIDENTE ROOSEVELT,RUA LUANDA
38401820,-18.898947,-48.29542,MG,Uberlandia,PRESIDENTE ROOSEVELT,TRAVESSA MOCAMBIQUE
38401822,-18.890778,-48.287191,MG,Uberlandia,PRESIDENTE ROOSEVELT,TRAVESSA LOURIVAL DANTAS AZEVEDO
38401830,-18.894263,-48.289039,MG,Uberlandia,PRESIDENTE ROOSEVELT,PRACA LARGO DAS ROSAS
38401832,-18.889862,-48.285316,MG,Uberlandia,PRESIDENTE ROOSEVELT,PRACA LARGO DOS LIRIOS
38401834,-18.895433,-48.31352,MG,Uberlandia,SAO JOSE,RUA LUIZ FERREIRA LIMA
38401836,-18.896903,-48.30347,MG,Uberlandia,JARDIM BRASILIA,TRAVESSA SOLAR
38401838,-18.89179,-48.287407,MG,Uberlandia,PRESIDENTE ROOSEVELT,RUA JOVENAL TERTULIANO DA SILVA
38401841,-18.890403,-48.301904,MG,Uberlandia,MARAVILHA,RUA IRENE CUNHA DE ALMEIDA
38401842,-18.8871,-48.303707,MG,Uberlandia,MARAVILHA,RUA HERBERT DE SOUZA
38401843,-18.887327,-48.301265,MG,Uberlandia,MARAVILHA,RUA NAMEM MUCHAIL
38401844,-18.887007,-48.305562,MG,Uberlandia,MARAVILHA,RUA FELICIANA DONATA DE MACEDO
38401845,-18.889868,-48.298785,MG,Uberlandia,MARAVILHA,RUA MARIA IVA DE OLIVEIRA
38401846,-18.889999,-48.299376,MG,Uberlandia,MARAVILHA,RUA INESIA AMANCIO MARTINELLI
38401847,-18.889617,-48.300065,MG,Uberlandia,MARAVILHA,RUA GERALDO JOSE DA COSTA
38401848,-18.888055,-48.301617,MG,Uberlandia,MARAVILHA,RUA JOSE ROSA NETO
38401849,-18.888011,-48.302327,MG,Uberlandia,MARAVILHA,RUA JOSE TOME RODRIGUES
38401850,-18.888135,-48.302877,MG,Uberlandia,MARAVILHA,RUA MARIA COSTA CARVALHO
38401851,-18.888041,-48.303728,MG,Uberlandia,MARAVILHA,RUA ALONSO FORTUOSO DE PINHO
38401852,-18.888074,-48.304465,MG,Uberlandia,MARAVILHA,RUA SOLDADO THAYS MARA RIBEIRO
38401853,-18.890572,-48.302683,MG,Uberlandia,MARAVILHA,RUA MARIO BORGES
38401854,-18.888409,-48.304949,MG,Uberlandia,MARAVILHA,RUA RENATO WILIAN GONCALVES
38401855,-18.888853,-48.305317,MG,Uberlandia,MARAVILHA,RUA BENEDICTO ARAUJO
38401856,-18.889199,-48.3058,MG,Uberlandia,MARAVILHA,RUA JOAQUIM PEREIRA DOS SANTOS
38401857,-18.889513,-48.306293,MG,Uberlandia,MARAVILHA,RUA ALCEU BORGES SANTANA
38401862,-18.893003,-48.306279,MG,Uberlandia,JARDIM BRASILIA,RUA ALCIDES MARTINS DE CAMPOS
38401863,-18.894435,-48.30878,MG,Uberlandia,JARDIM BRASILIA,RUA GOMERCINDO CARLOS AFONSO
38401866,-18.892459,-48.30689,MG,Uberlandia,JARDIM BRASILIA,RUA IRACI FERNANDES BORGES
38401867,-18.892397,-48.307559,MG,Uberlandia,JARDIM BRASILIA,RUA BIOT SANTOS
38401868,-18.892572,-48.308089,MG,Uberlandia,JARDIM BRASILIA,RUA ADALBERTO MORAES
38401870,-18.890867,-48.30975,MG,Uberlandia,JARDIM BRASILIA,RUA DIONISIA GONCALVES RODRIGUES
38401872,-18.89225,-48.309096,MG,Uberlandia,JARDIM BRASILIA,RUA FERNANDO PEREIRA DOS SANTOS
38401874,-18.892511,-48.309633,MG,Uberlandia,JARDIM BRASILIA,RUA RITA VILELA DE MENEZES
38401877,-18.893722,-48.310273,MG,Uberlandia,JARDIM BRASILIA,RUA FABIO RAFAEL FELICE
38401879,-18.894958,-48.310224,MG,Uberlandia,JARDIM BRASILIA,RUA TOMAZ MARTINS DE CAMPOS
38401880,-18.894591,-48.310907,MG,Uberlandia,JARDIM BRASILIA,RUA JOAQUIM CARDOSO NETO
38401882,-18.894118,-48.311331,MG,Uberlandia,JARDIM BRASILIA,RUA NAIR ALVES DOS REIS DUARTE
38401883,-18.893235,-48.311052,MG,Uberlandia,JARDIM BRASILIA,RUA ALAOR CARLOS GARCIA
38401884,-18.893173,-48.311928,MG,Uberlandia,JARDIM BRASILIA,RUA PIMENTA BUENO
38401886,-18.892599,-48.312566,MG,Uberlandia,JARDIM BRASILIA,RUA ARISTOTELES DOS SANTOS
38401889,-18.891985,-48.312267,MG,Uberlandia,JARDIM BRASILIA,RUA JOAO ALVES RODRIGUES
38402002,-18.871269,-48.276203,MG,Uberlandia,NOSSA SENHORA DAS GRACAS,AVENIDA ANDRE REBOUCAS
38402004,-18.870099,-48.276657,MG,Uberlandia,NOSSA SENHORA DAS GRACAS,AVENIDA BENTO GONCALVES
38402005,-18.877714,-48.275692,MG,Uberlandia,SANTA ROSA,AVENIDA ANTONIO THOMAS FERREIRA DE REZENDE
38402006,-18.868969,-48.277165,MG,Uberlandia,DISTRITO INDUSTRIAL,AVENIDA GUIA LOPES
38402007,-18.867598,-48.276056,MG,Uberlandia,NOSSA SENHORA DAS GRACAS,RUA DAVID CANABARRO
38402008,-18.86825,-48.277971,MG,Uberlandia,NOSSA SENHORA DAS GRACAS,AVENIDA SIQUEIRA CAMPOS
38402010,-18.868344,-48.279364,MG,Uberlandia,DISTRITO INDUSTRIAL,AVENIDA CLARA CAMARAO
38402012,-18.868537,-48.280843,MG,Uberlandia,NOSSA SENHORA DAS GRACAS,AVENIDA PADRE MIGUELINHO
38402014,-18.892917,-48.263693,MG,Uberlandia,SAO JORGE,RUA PAULO ALEXANDRE GARCIA
38402015,-18.877609,-48.271588,MG,Uberlandia,NOSSA SENHORA DAS GRACAS,AVENIDA VISCONDE DE MAUA
38402016,-18.878243,-48.27233,MG,Uberlandia,UMUARAMA,RUA RIO GRANDE DO NORTE
38402018,-18.876357,-48.273634,MG,Uberlandia,NOSSA SENHORA DAS GRACAS,RUA CEARA
38402019,-18.903027,-48.243795,MG,Uberlandia,MINAS GERAIS,RUA PAULO ROBERTO CUNHA DOS SANTOS
38402020,-18.876281,-48.272232,MG,Uberlandia,NOSSA SENHORA DAS GRACAS,RUA PIAUI
38402022,-18.872945,-48.27568,MG,Uberlandia,NOSSA SENHORA DAS GRACAS,RUA ACRE
38402024,-18.871722,-48.275977,MG,Uberlandia,NOSSA SENHORA DAS GRACAS,RUA IGUACU
38402028,-18.871004,-48.274003,MG,Uberlandia,MARTA HELENA,RUA REPUBLICA DO PIRATINI
38402030,-18.876045,-48.265046,MG,Uberlandia,MARTA HELENA,RUA DOUTOR LUIZ ANTONIO WAACK
38402032,-18.875582,-48.264337,MG,Uberlandia,MARTA HELENA,RUA DAVID CANABARRO
38402034,-18.874367,-48.264489,MG,Uberlandia,MARTA HELENA,RUA MARIA QUITERIA
38402036,-18.87403,-48.26856,MG,Uberlandia,MARTA HELENA,RUA AMELIA ABALEM IUNES
38402037,-18.881277,-48.268868,MG,Uberlandia,MARTA HELENA,RUA PARAIBA
38402038,-18.873762,-48.268225,MG,Uberlandia,MARTA HELENA,RUA ABALEM MORUTA FRANGIA
38402039,-18.880237,-48.268889,MG,Uberlandia,MARTA HELENA,RUA RIO GRANDE DO NORTE
38402040,-18.873529,-48.267167,MG,Uberlandia,MARTA HELENA,RUA OSMAR SILVERIO DA SILVA
38402041,-18.882016,-48.265146,MG,Uberlandia,CUSTODIO PEREIRA,RUA CEARA
38402042,-18.872504,-48.268491,MG,Uberlandia,MARTA HELENA,RUA GUIOMAR DE FARIA
38402043,-18.878768,-48.268494,MG,Uberlandia,MARTA HELENA,RUA PIAUI
38402044,-18.873136,-48.267037,MG,Uberlandia,MARTA HELENA,RUA ALTAIR DOMINGUES
38402045,-18.878325,-48.267661,MG,Uberlandia,MARTA HELENA,RUA ACRE
38402046,-18.872929,-48.266485,MG,Uberlandia,MARTA HELENA,RUA JORDINO ENOCENCIO ALVES
38402047,-18.877842,-48.266853,MG,Uberlandia,MARTA HELENA,RUA IGUACU
38402048,-18.872671,-48.266147,MG,Uberlandia,MARTA HELENA,RUA REINALDO FRANCALANCI
38402050,-18.872247,-48.266021,MG,Uberlandia,MARTA HELENA,RUA AILTON FELIX RODRIGUES
38402051,-18.876775,-48.265446,MG,Uberlandia,MARTA HELENA,RUA REPUBLICA DO PIRATINI
38402052,-18.872562,-48.268035,MG,Uberlandia,MARTA HELENA,RUA MIGUEL BARCHA
38402054,-18.87421,-48.268107,MG,Uberlandia,MARTA HELENA,RUA JOSINA ELISA DA CONCEICAO
38402056,-18.872744,-48.269345,MG,Uberlandia,MARTA HELENA,RUA QUITO RODRIGUES DA CUNHA
38402058,-18.872806,-48.268801,MG,Uberlandia,MARTA HELENA,RUA ANTONIO RODRIGUES DA CONCEICAO
38402059,-18.878409,-48.271444,MG,Uberlandia,NOSSA SENHORA DAS GRACAS,RUA GRANDE OTELO
38402060,-18.873811,-48.268733,MG,Uberlandia,MARTA HELENA,RUA SEBASTIAO VIEIRA DE SOUZA
38402062,-18.872356,-48.267299,MG,Uberlandia,MARTA HELENA,RUA ALVARO LENZA
38402066,-18.872462,-48.266879,MG,Uberlandia,MARTA HELENA,RUA MARIO GOMES DE FARIA
38402068,-18.874053,-48.266838,MG,Uberlandia,MARTA HELENA,RUA NEUZA MARIA GOMES
38402072,-18.873534,-48.269069,MG,Uberlandia,MARTA HELENA,RUA MADALENA LUNARDI DA SILVA
38402074,-18.868558,-48.276158,MG,Uberlandia,DISTRITO INDUSTRIAL,RUA PEDRO IVO
38402075,-18.871209,-48.27523,MG,Uberlandia,DISTRITO INDUSTRIAL,RUA PEDRO QUIRINO DA SILVA
38402078,-18.86752,-48.285294,MG,Uberlandia,CRUZEIRO DO SUL,RUA LESTE
38402080,-18.865285,-48.269066,MG,Uberlandia,MINAS GERAIS,RUA DA CEVADA
38402082,-18.864939,-48.270122,MG,Uberlandia,MINAS GERAIS,RUA DO CAFE
38402084,-18.864618,-48.271235,MG,Uberlandia,MINAS GERAIS,RUA DO MILHO
38402086,-18.864446,-48.271751,MG,Uberlandia,MINAS GERAIS,RUA JOAO NEVES
38402088,-18.863754,-48.27191,MG,Uberlandia,MINAS GERAIS,RUA DO SORGO
38402090,-18.862948,-48.272659,MG,Uberlandia,MINAS GERAIS,RUA JOSE EURIPEDES BASTOS
38402092,-18.862146,-48.273332,MG,Uberlandia,MINAS GERAIS,RUA DA SOJA
38402094,-18.860672,-48.273709,MG,Uberlandia,MINAS GERAIS,RUA DO ARROZ
38402096,-18.860143,-48.274522,MG,Uberlandia,MINAS GERAIS,RUA DO TRIGO
38402100,-18.846981,-48.290579,MG,Uberlandia,MINAS GERAIS,AVENIDA AIRTON BORGES DA SILVA
38402104,-18.870112,-48.283642,MG,Uberlandia,CRUZEIRO DO SUL,RUA ANITA DELLA PENNA
38402112,-18.87028,-48.28444,MG,Uberlandia,CRUZEIRO DO SUL,RUA IBRAHIM KHOURY
38402114,-18.870039,-48.284962,MG,Uberlandia,CRUZEIRO DO SUL,RUA ANA PAULA
38402120,-18.869482,-48.285214,MG,Uberlandia,CRUZEIRO DO SUL,RUA OESTE
38402122,-18.869632,-48.286085,MG,Uberlandia,CRUZEIRO DO SUL,RUA LOURDES BERNARDES GARCIA
38402126,-18.865574,-48.262617,MG,Uberlandia,MINAS GERAIS,RUA DA FARTURA
38402128,-18.867045,-48.285504,MG,Uberlandia,CRUZEIRO DO SUL,RUA CRISTINA
38402130,-18.866697,-48.286013,MG,Uberlandia,CRUZEIRO DO SUL,RUA FLOR DE LIZ
38402132,-18.867327,-48.287142,MG,Uberlandia,CRUZEIRO DO SUL,AVENIDA RAMIRO PEDROSA
38402136,-18.86761,-48.261463,MG,Uberlandia,MINAS GERAIS,RUA CERES
38402152,-18.866541,-48.283506,MG,Uberlandia,NOSSA SENHORA DAS GRACAS,RUA CENTRAL
38402156,-19.142685,-47.936644,MG,Uberlandia,TAPUIRAMA,RUA RANGEL
38402158,-18.868922,-48.283621,MG,Uberlandia,CRUZEIRO DO SUL,RUA SUL
38402160,-18.868496,-48.285247,MG,Uberlandia,CRUZEIRO DO SUL,RUA ALVACAZ
38402162,-18.868423,-48.286293,MG,Uberlandia,NOSSA SENHORA DAS GRACAS,RUA NORTE
38402164,-18.868766,-48.286851,MG,Uberlandia,CRUZEIRO DO SUL,RUA RAIOS DO SOL
38402166,-18.869137,-48.287137,MG,Uberlandia,CRUZEIRO DO SUL,RUA ANGELICA
38402168,-18.870029,-48.286843,MG,Uberlandia,CRUZEIRO DO SUL,RUA AURORA
38402170,-18.870044,-48.286038,MG,Uberlandia,CRUZEIRO DO SUL,PRACA JOSE MIGUEL
38402172,-18.865043,-48.264764,MG,Uberlandia,MINAS GERAIS,RUA DA PRODUCAO
38402174,-18.864327,-48.2655,MG,Uberlandia,MINAS GERAIS,RUA DOS SILOS
38402176,-18.870165,-48.261652,MG,Uberlandia,MINAS GERAIS,RUA GALIANO TORRANO
38402177,-18.869535,-48.261065,MG,Uberlandia,MINAS GERAIS,RUA DOS ROUSSELLS
38402178,-18.867471,-48.262457,MG,Uberlandia,MINAS GERAIS,RUA MONTEIRO LOBATO
38402180,-18.867166,-48.261583,MG,Uberlandia,MINAS GERAIS,RUA SILVIO ROMERO
38402182,-18.86688,-48.260591,MG,Uberlandia,MINAS GERAIS,RUA AMARAL COUTINHO
38402184,-18.864807,-48.26207,MG,Uberlandia,MINAS GERAIS,RUA MANOEL BANDEIRA
38402185,-18.867552,-48.256411,MG,Uberlandia,MINAS GERAIS,RUA COMENDADOR ALCIDES SIMAO HELOU
38402186,-18.864225,-48.261413,MG,Uberlandia,MINAS GERAIS,RUA MANUEL BECKMAN
38402188,-18.863964,-48.260456,MG,Uberlandia,MINAS GERAIS,RUA BETIM PAES LEME
38402190,-18.870435,-48.264271,MG,Uberlandia,MINAS GERAIS,RUA GUMERCINDO SILVA
38402192,-18.869252,-48.264563,MG,Uberlandia,MINAS GERAIS,RUA GONCALVES LEDO
38402194,-18.866762,-48.262163,MG,Uberlandia,MINAS GERAIS,RUA DO PAIOL
38402196,-18.861118,-48.273641,MG,Uberlandia,MINAS GERAIS,RUA CIRO ALVES DE OLIVEIRA
38402198,-18.86324,-48.271945,MG,Uberlandia,MINAS GERAIS,RUA FRANCISCO VINAGRE
38402200,-18.865208,-48.263547,MG,Uberlandia,MINAS GERAIS,RUA DA SAFRA
38402202,-18.866939,-48.268949,MG,Uberlandia,MINAS GERAIS,RUA DO CENTEIO
38402203,-18.868274,-48.257033,MG,Uberlandia,MINAS GERAIS,RUA FRANCISCO DOMINGOS DE PAULA
38402204,-18.872503,-48.258665,MG,Uberlandia,MINAS GERAIS,RUA DA LAVOURA
38402205,-18.868639,-48.26493,MG,Uberlandia,MINAS GERAIS,ALAMEDA LUIZ ROBERTO DE SOUZA
38402206,-18.870817,-48.258328,MG,Uberlandia,MINAS GERAIS,RUA DO AMENDOIM
38402208,-18.87057,-48.261003,MG,Uberlandia,MINAS GERAIS,RUA DAS SEMENTES
38402210,-18.869083,-48.261351,MG,Uberlandia,MINAS GERAIS,RUA DA TULHA
38402211,-18.891237,-48.269802,MG,Uberlandia,MARTA HELENA,AVENIDA TERESINA
38402218,-18.873538,-48.280513,MG,Uberlandia,NOSSA SENHORA DAS GRACAS,RUA LUIZ SIQUIEROLI
38402222,-18.875287,-48.270156,MG,Uberlandia,NOSSA SENHORA DAS GRACAS,AVENIDA DOUTOR ROFLES CECILIO
38402224,-18.889387,-48.271075,MG,Uberlandia,MARTA HELENA,AVENIDA ARNALDO CONTURSI
38402225,-18.89631,-48.269687,MG,Uberlandia,BRASIL,RUA CURITIBA
38402226,-18.887855,-48.271351,MG,Uberlandia,MARTA HELENA,AVENIDA QUILOMBO DOS PALMARES
38402227,-18.89474,-48.270599,MG,Uberlandia,MARTA HELENA,RUA OZORIO JOSE DA CUNHA
38402228,-18.878811,-48.266097,MG,Uberlandia,MARTA HELENA,AVENIDA COMENDADOR ALEXANDRINO GARCIA
38402229,-18.891513,-48.273892,MG,Uberlandia,MARTA HELENA,RUA RIO GRANDE DO SUL
38402230,-18.886168,-48.273562,MG,Uberlandia,MARTA HELENA,AVENIDA BALAIADAS
38402231,-18.89051,-48.273805,MG,Uberlandia,MARTA HELENA,RUA SANTA CATARINA
38402233,-18.891875,-48.270281,MG,Uberlandia,MARTA HELENA,RUA PARANA
38402234,-18.885916,-48.27112,MG,Uberlandia,MARTA HELENA,AVENIDA PAULO ROBERTO CUNHA SANTOS
38402235,-18.889213,-48.272696,MG,Uberlandia,MARTA HELENA,RUA SAO PAULO
38402236,-18.875509,-48.279643,MG,Uberlandia,MARTA HELENA,AVENIDA ANTONIO THOMAZ FERREIRA DE REZENDE
38402237,-18.890054,-48.26993,MG,Uberlandia,BRASIL,RUA RIO DE JANEIRO
38402238,-18.86456,-48.270532,MG,Uberlandia,MINAS GERAIS,RUA ANDRE APOSTOLO DE OLIVEIRA
38402239,-18.887611,-48.272048,MG,Uberlandia,MARTA HELENA,RUA ESPIRITO SANTO
38402240,-18.8797,-48.271063,MG,Uberlandia,NOSSA SENHORA DAS GRACAS,RUA SEBASTIAO CARRIJO
38402241,-18.887211,-48.271103,MG,Uberlandia,MARTA HELENA,RUA BAHIA
38402243,-18.886599,-48.270518,MG,Uberlandia,MARTA HELENA,RUA CLAUDEMIRO JOSE DE SOUZA
38402244,-18.882994,-48.268183,MG,Uberlandia,MARTA HELENA,AVENIDA ANTONIO THOMAZ FERREIRA DE REZENDE
38402245,-18.888059,-48.266854,MG,Uberlandia,BRASIL,RUA ALAGOAS
38402247,-18.887541,-48.266072,MG,Uberlandia,BRASIL,RUA JOSE ALVES GARCIA
38402248,-18.865483,-48.268835,MG,Uberlandia,MINAS GERAIS,RUA VIRGILIO CARRIJO
38402249,-18.8847,-48.268865,MG,Uberlandia,MARTA HELENA,RUA JOSE REZENDE DOS SANTOS
38402250,-18.869525,-48.270658,MG,Uberlandia,MINAS GERAIS,RUA JOSE CAPARELLI
38402251,-18.884021,-48.268367,MG,Uberlandia,MARTA HELENA,RUA PADRE AMERICO CEPPI
38402253,-18.893317,-48.273711,MG,Uberlandia,MARTA HELENA,AVENIDA MONSENHOR EDUARDO
38402262,-18.866719,-48.264747,MG,Uberlandia,MINAS GERAIS,ALAMEDA JOAO BORGES PEREIRA
38402264,-18.867186,-48.265032,MG,Uberlandia,MINAS GERAIS,RUA DA SAFRA
38402266,-18.893978,-48.277394,MG,Uberlandia,MARTA HELENA,AVENIDA PAULO ROBERTO CUNHA SANTOS
38402268,-18.879022,-48.276765,MG,Uberlandia,SANTA ROSA,AVENIDA REBELIAO PRAIEIRA
38402276,-18.878795,-48.277124,MG,Uberlandia,NOSSA SENHORA DAS GRACAS,RUA JOAO ASCINDINO DA COSTA
38402278,-18.877701,-48.277964,MG,Uberlandia,SANTA ROSA,RUA ANTONIO MANO DE CARVALHO
38402280,-18.873237,-48.273603,MG,Uberlandia,NOSSA SENHORA DAS GRACAS,AVENIDA CONFEDERACAO DO EQUADOR
38402284,-18.880056,-48.26422,MG,Uberlandia,MARTA HELENA,AVENIDA ARNALDO CONTURSI
38402286,-18.880493,-48.265877,MG,Uberlandia,MARTA HELENA,AVENIDA QUILOMBO DOS PALMARES
38402288,-18.871947,-48.261075,MG,Uberlandia,MINAS GERAIS,AVENIDA COMENDADOR ALEXANDRINO GARCIA
38402290,-18.879075,-48.267259,MG,Uberlandia,MARTA HELENA,AVENIDA JOSE DO PATROCINIO
38402292,-18.877876,-48.267738,MG,Uberlandia,MARTA HELENA,AVENIDA BALAIADAS
38402293,-18.874772,-48.269814,MG,Uberlandia,NOSSA SENHORA DAS GRACAS,RUA PEDRO QUIRINO DA SILVA
38402296,-18.876349,-48.267976,MG,Uberlandia,MARTA HELENA,AVENIDA CABANADAS
38402298,-18.876628,-48.269471,MG,Uberlandia,NOSSA SENHORA DAS GRACAS,AVENIDA GARCIA LORCA
38402300,-18.87592,-48.270255,MG,Uberlandia,MARTA HELENA,AVENIDA VISCONDE DE MAUA
38402302,-18.876421,-48.27198,MG,Uberlandia,NOSSA SENHORA DAS GRACAS,AVENIDA FARROUPILHAS
38402304,-18.875213,-48.272426,MG,Uberlandia,NOSSA SENHORA DAS GRACAS,AVENIDA SABINADAS
38402306,-18.87469,-48.27336,MG,Uberlandia,NOSSA SENHORA DAS GRACAS,AVENIDA REBELIAO PRAIEIRA
38402308,-18.874037,-48.274259,MG,Uberlandia,NOSSA SENHORA DAS GRACAS,AVENIDA CONFEDERACAO DO EQUADOR
38402310,-18.872999,-48.27481,MG,Uberlandia,NOSSA SENHORA DAS GRACAS,AVENIDA FREI CANECA
38402312,-18.872463,-48.27575,MG,Uberlandia,NOSSA SENHORA DAS GRACAS,AVENIDA BARBARA ELEODORA
38402318,-18.892652,-48.272213,MG,Uberlandia,MARTA HELENA,RUA NATAL DE OLIVEIRA MARQUEZ
38402320,-18.877681,-48.27004,MG,Uberlandia,MARTA HELENA,AVENIDA DOUTOR ROFLES CECILIO
38402322,-18.872201,-48.263119,MG,Uberlandia,MINAS GERAIS,AVENIDA JOSE ANDRAUS GASSANI
38402324,-18.894086,-48.465253,MG,Uberlandia,UBERLANDIA,FAZENDA OURO VERDE
38402325,-18.883364,-48.305627,MG,Uberlandia,DISTRITO INDUSTRIAL,RUA VALTENIO BUIATE
38402327,-18.85987,-48.290607,MG,Uberlandia,DISTRITO INDUSTRIAL,RUA SEBASTIANA FRUTUOSO DE JESUS
38402328,-18.863705,-48.29279,MG,Uberlandia,DISTRITO INDUSTRIAL,RUA SETEMBRINO RODRIGUES SILVEIRA
38402329,-18.871124,-48.25919,MG,Uberlandia,UBERLANDIA,FAZENDA MARIMBONDO
38402330,-18.860232,-48.288341,MG,Uberlandia,DISTRITO INDUSTRIAL,RUA NIVALDO GUERREIRO NUNES
38402331,-18.884686,-48.306508,MG,Uberlandia,DISTRITO INDUSTRIAL,RUA RAFAEL LUCAS XAVIER SANTOS
38402332,-18.867405,-48.293523,MG,Uberlandia,DISTRITO INDUSTRIAL,RUA AFONSO EGYDIO DE SOUZA
38402333,-18.865336,-48.272836,MG,Uberlandia,DISTRITO INDUSTRIAL,AVENIDA AIRTON BORGES DA SILVA
38402334,-18.863216,-48.297103,MG,Uberlandia,DISTRITO INDUSTRIAL,RUA VICTOR RODRIGUES DE REZENDE
38402335,-18.884073,-48.308185,MG,Uberlandia,DISTRITO INDUSTRIAL,RUA JOSE RODRIGUES
38402336,-18.866828,-48.296396,MG,Uberlandia,DISTRITO INDUSTRIAL,RUA LICERIO PINHEIRO DE PAULA
38402337,-18.865336,-48.298049,MG,Uberlandia,DISTRITO INDUSTRIAL,RUA ODORICO LUIZ DE OLIVEIRA
38402338,-18.869502,-48.30118,MG,Uberlandia,DISTRITO INDUSTRIAL,RUA WANDELVART FARIA MARQUEZ
38402339,-18.865546,-48.29197,MG,Uberlandia,DISTRITO INDUSTRIAL,AVENIDA JOSE ANDRAUS GASSANI
38402340,-18.876718,-48.30022,MG,Uberlandia,DISTRITO INDUSTRIAL,RUA IGNES FAVATO
38402341,-18.878687,-48.300984,MG,Uberlandia,DISTRITO INDUSTRIAL,RUA VALDIR CASTILHO
38402342,-18.881088,-48.305064,MG,Uberlandia,DISTRITO INDUSTRIAL,RUA DECIO SPIRANDELLI CARVALHO
38402343,-18.89836,-48.351783,MG,Uberlandia,MORADA DO SOL,RODOVIA BR 452
38402345,-18.878696,-48.301994,MG,Uberlandia,DISTRITO INDUSTRIAL,RUA JOSE VIEIRA DE CARVALHO
38402346,-18.885573,-48.31287,MG,Uberlandia,DISTRITO INDUSTRIAL,RUA LINEU ANTERINO MARIANO
38402347,-18.882175,-48.307725,MG,Uberlandia,DISTRITO INDUSTRIAL,RUA AIRDO RUBENS BORBA
38402348,-18.849914,-48.295049,MG,Uberlandia,DISTRITO INDUSTRIAL,RUA LAIDE VIRGINIA DA COSTA
38402349,-18.852937,-48.296915,MG,Uberlandia,DISTRITO INDUSTRIAL,AVENIDA ANTONIO THOMAS FERREIRA DE REZENDE
38402350,-18.853787,-48.292291,MG,Uberlandia,DISTRITO INDUSTRIAL,RUA WILL CARGILL
38402351,-18.877804,-48.301909,MG,Uberlandia,DISTRITO INDUSTRIAL,RUA LAURA NITA CRUZ
38402352,-18.846081,-48.294524,MG,Uberlandia,DISTRITO INDUSTRIAL,RUA GERALDO MOREIRA E SILVA
38402353,-18.882831,-48.306057,MG,Uberlandia,DISTRITO INDUSTRIAL,RUA ANGELO PIZZATO
38402354,-18.853247,-48.295218,MG,Uberlandia,DISTRITO INDUSTRIAL,RUA EDWARDS MANOEL DA SILVA
38402355,-18.876131,-48.298491,MG,Uberlandia,DISTRITO INDUSTRIAL,RUA DOS TEOFILOS
38402356,-18.854585,-48.298389,MG,Uberlandia,DISTRITO INDUSTRIAL,RUA ANGELO NAGHETTINI
38402357,-18.850626,-48.292256,MG,Uberlandia,DISTRITO INDUSTRIAL,RUA ANTENOR ALVES RABELO
38402358,-18.850373,-48.299576,MG,Uberlandia,DISTRITO INDUSTRIAL,RUA JOAQUIM PEDRO GONCALVES
38402363,-18.866119,-48.258394,MG,Uberlandia,MINAS GERAIS,RUA JU 01
38402680,-18.864916,-48.267716,MG,Uberlandia,MINAS GERAIS,RUA ALEXANDRE ZUCKETTI
38402682,-18.864541,-48.26728,MG,Uberlandia,MINAS GERAIS,RUA PEDRO PEREIRA DA SILVA
38402684,-18.864019,-48.267001,MG,Uberlandia,MINAS GERAIS,RUA ELEIDI MARIA CARDOSO BORGES
38402715,-18.856099,-48.271103,MG,Uberlandia,MINAS GERAIS,RUA A
38402724,-18.856658,-48.271069,MG,Uberlandia,MINAS GERAIS,RUA JORGE AMADO
38402733,-18.857039,-48.271555,MG,Uberlandia,MINAS GERAIS,RUA GERSON COUTINHO DA SILVA
38402742,-18.857663,-48.27163,MG,Uberlandia,MINAS GERAIS,RUA CHIQUINHA GONZAGA
38402744,-18.857859,-48.271779,MG,Uberlandia,MINAS GERAIS,AVENIDA LUIZ LOUREIRO GUIMARAES
38402746,-18.858585,-48.271188,MG,Uberlandia,MINAS GERAIS,RUA JOSE DE ALENCAR
38402748,-18.857641,-48.27296,MG,Uberlandia,MINAS GERAIS,AVENIDA FERNANDO PESSOA
38402755,-18.858054,-48.27358,MG,Uberlandia,MINAS GERAIS,RUA ERICO VERISSIMO
38402756,-18.859009,-48.27163,MG,Uberlandia,MINAS GERAIS,RUA ARIANO SUASSUNA
38402757,-18.859601,-48.271686,MG,Uberlandia,MINAS GERAIS,RUA CARLOS DRUMMOND DE ANDRADE
38402758,-18.860381,-48.273158,MG,Uberlandia,MINAS GERAIS,RUA RUTH ROCHA
38402759,-18.858694,-48.272433,MG,Uberlandia,MINAS GERAIS,RUA MANOEL DE BARROS
38402761,-18.858572,-48.273862,MG,Uberlandia,MINAS GERAIS,RUA FERNANDO SABINO
38402765,-18.857979,-48.275101,MG,Uberlandia,MINAS GERAIS,AVENIDA TOM JOBIM
38402769,-18.858901,-48.274399,MG,Uberlandia,MINAS GERAIS,RUA JOAO UBALDO RIBEIRO
38402810,-18.846952,-48.302546,MG,Uberlandia,DISTRITO INDUSTRIAL,RUA CESAR MUGNATO
38404482,-18.838165,-48.316752,MG,Uberlandia,UBERLANDIA,AVENIDA CELIO SILVEIRA LOPES
38404484,-18.838595,-48.31776,MG,Uberlandia,UBERLANDIA,AVENIDA ACIR ALMEIDA
38404486,-18.83983,-48.317408,MG,Uberlandia,UBERLANDIA,RUA ANTONIO SEGATTO
38404488,-18.839449,-48.318399,MG,Uberlandia,UBERLANDIA,RUA MANOEL LOPES DA SILVA
38404490,-18.840036,-48.319322,MG,Uberlandia,UBERLANDIA,RUA ADEMAR MARTINS COSTA
38404492,-18.840532,-48.320278,MG,Uberlandia,UBERLANDIA,RUA JOSE BEZERRA
38404494,-18.840256,-48.321538,MG,Uberlandia,UBERLANDIA,RUA GERALDO GARCIA RESENDE
38404496,-18.839479,-48.320228,MG,Uberlandia,UBERLANDIA,RUA MARIA FERREIRA DE AVILA
38404498,-18.837712,-48.317166,MG,Uberlandia,UBERLANDIA,ALAMEDA PRINCIPAL
38405000,-18.953783,-48.173715,MG,Uberlandia,TIBERY,RUA NATAL
38405002,-18.906814,-48.25701,MG,Uberlandia,TIBERY,AVENIDA NORUEGA
38405004,-18.907486,-48.25712,MG,Uberlandia,TIBERY,RUA ROTARY CLUBE
38405008,-18.904099,-48.259587,MG,Uberlandia,TIBERY,RUA PORTO ALEGRE
38405012,-18.903266,-48.259343,MG,Uberlandia,TIBERY,RUA CURITIBA
38405014,-18.90697,-48.255456,MG,Uberlandia,TIBERY,AVENIDA SUECIA
38405015,-18.901394,-48.258875,MG,Uberlandia,TIBERY,RUA ANTONIO REZENDE COSTA
38405016,-18.904559,-48.256928,MG,Uberlandia,TIBERY,PRACA JOAO BATISTA DE LIMA
38405017,-18.901198,-48.237671,MG,Uberlandia,TIBERY,AVENIDA EXPEDICIONARIOS
38405018,-18.902549,-48.258779,MG,Uberlandia,TIBERY,RUA OZORIO JOSE DA CUNHA
38405020,-18.9003,-48.260725,MG,Uberlandia,BRASIL,RUA RIO GRANDE DO SUL
38405022,-18.901169,-48.257645,MG,Uberlandia,TIBERY,RUA SANTA CATARINA
38405024,-18.904586,-48.255159,MG,Uberlandia,TIBERY,AVENIDA SUICA
38405025,-18.905262,-48.259364,MG,Uberlandia,TIBERY,RUA BELEM
38405026,-18.900408,-48.257577,MG,Uberlandia,TIBERY,RUA MONTREAL
38405027,-18.899923,-48.257441,MG,Uberlandia,TIBERY,RUA SAO PAULO
38405028,-18.904702,-48.253176,MG,Uberlandia,TIBERY,AVENIDA HOLANDA
38405029,-18.908208,-48.257003,MG,Uberlandia,TIBERY,RUA CANADA
38405030,-18.904333,-48.251455,MG,Uberlandia,TIBERY,AVENIDA BELGICA
38405031,-18.905781,-48.257149,MG,Uberlandia,TIBERY,RUA EDMAR HONORIO CORDEIRO
38405032,-18.905635,-48.250164,MG,Uberlandia,TIBERY,PRACA DUARTINO CARRIJO FERNANDES
38405034,-18.901063,-48.252015,MG,Uberlandia,TIBERY,RUA MONTREAL
38405036,-18.900992,-48.251102,MG,Uberlandia,TIBERY,RUA CONSTANTINOPLA
38405038,-18.901255,-48.251035,MG,Uberlandia,TIBERY,PRACA SENADOR CAMILO CHAVES
38405040,-18.903012,-48.24974,MG,Uberlandia,TIBERY,AVENIDA BENJAMIN MAGALHAES
38405042,-18.903058,-48.246878,MG,Uberlandia,TIBERY,AVENIDA PORTUGAL
38405044,-18.90406,-48.246466,MG,Uberlandia,TIBERY,PRACA CHAMPAGNAT
38405046,-18.896007,-48.251547,MG,Uberlandia,TIBERY,RUA JOAO GUIMARAES NAVES
38405048,-18.902546,-48.245273,MG,Uberlandia,TIBERY,AVENIDA ESPANHA
38405050,-18.903338,-48.242494,MG,Uberlandia,TIBERY,AVENIDA INGLATERRA
38405052,-18.903039,-48.240347,MG,Uberlandia,TIBERY,AVENIDA FRANCA
38405054,-18.904094,-48.240782,MG,Uberlandia,TIBERY,PRACA RENATO HUMBERTO CALCAGNO
38405056,-18.9039,-48.237437,MG,Uberlandia,TIBERY,AVENIDA ITALIA
38405060,-18.904153,-48.250233,MG,Uberlandia,SEGISMUNDO PEREIRA,RODOVIA BR 050
38405062,-18.898574,-48.252751,MG,Uberlandia,TIBERY,RUA GUATEMALA
38405064,-18.899012,-48.253306,MG,Uberlandia,TIBERY,RUA GRECIA
38405066,-18.899383,-48.252753,MG,Uberlandia,TIBERY,RUA ATENAS
38405068,-18.901015,-48.253661,MG,Uberlandia,TIBERY,RUA TUNISIA
38405070,-18.899168,-48.249728,MG,Uberlandia,TIBERY,RUA REPUBLICA DA SIRIA
38405072,-18.903139,-48.255327,MG,Uberlandia,TIBERY,RUA LISBOA
38405074,-18.901905,-48.252259,MG,Uberlandia,TIBERY,AVENIDA FREDERICO TIBERY
38405076,-18.904191,-48.25392,MG,Uberlandia,TIBERY,RUA ROMA
38405078,-18.900027,-48.248035,MG,Uberlandia,TIBERY,RUA MADRI
38405080,-18.903196,-48.251207,MG,Uberlandia,TIBERY,RUA LONDRES
38405082,-18.903696,-48.25064,MG,Uberlandia,TIBERY,RUA PARIS
38405084,-18.907477,-48.256388,MG,Uberlandia,TIBERY,PRACA MANOEL HIPOLITO DANTAS
38405086,-18.90328,-48.248779,MG,Uberlandia,TIBERY,RUA VIENA
38405088,-18.904015,-48.248516,MG,Uberlandia,TIBERY,AVENIDA EUROPA
38405090,-18.903345,-48.247069,MG,Uberlandia,TIBERY,PRACA DOMINGOS SAVIO SILVA
38405092,-18.905139,-48.248762,MG,Uberlandia,TIBERY,AVENIDA AUSTRALIA
38405094,-18.904731,-48.248132,MG,Uberlandia,TIBERY,PRACA DAS NACOES
38405096,-18.90531,-48.24768,MG,Uberlandia,TIBERY,AVENIDA AFRICA
38405098,-18.905756,-48.249822,MG,Uberlandia,TIBERY,PRACA ARLINDO MAGALHAES
38405100,-18.906484,-48.247596,MG,Uberlandia,TIBERY,RUA NICARAGUA
38405102,-18.904974,-48.244169,MG,Uberlandia,TIBERY,RUA VENEZUELA
38405104,-18.906745,-48.245199,MG,Uberlandia,TIBERY,RUA ALASKA
38405105,-18.904037,-48.2413,MG,Uberlandia,TIBERY,RUA ASIA
38405106,-18.905285,-48.241608,MG,Uberlandia,TIBERY,RUA CRISTOVAO MARRA
38405108,-18.905426,-48.240352,MG,Uberlandia,TIBERY,RUA BOLIVIA
38405110,-18.905665,-48.239217,MG,Uberlandia,TIBERY,RUA PIRAPORA
38405112,-18.906839,-48.239961,MG,Uberlandia,TIBERY,RUA HAIA
38405114,-18.907604,-48.243805,MG,Uberlandia,TIBERY,AVENIDA EXPEDICIONARIOS
38405116,-18.908165,-48.246673,MG,Uberlandia,TIBERY,AVENIDA JAIME MACEDO FILHO
38405118,-18.908761,-48.247163,MG,Uberlandia,TIBERY,AVENIDA ALEXANDRE HENKE ANDRE DE OLIVEIRA
38405120,-18.897061,-48.246016,MG,Uberlandia,TIBERY,RUA FLORESTANO DE MACEDO TIBERY
38405134,-18.909175,-48.25593,MG,Uberlandia,TIBERY,RUA GUMERCINDO ALVES SANTANA
38405138,-18.90813,-48.247754,MG,Uberlandia,TIBERY,RUA PEDRO JOSE DE CASTRO
38405142,-18.902567,-48.259535,MG,Uberlandia,TIBERY,AVENIDA RONDON PACHECO
38405146,-18.902972,-48.258729,MG,Uberlandia,TIBERY,RUA CHILE
38405148,-18.904551,-48.259115,MG,Uberlandia,TIBERY,RUA SANTIAGO
38405150,-18.903197,-48.257863,MG,Uberlandia,TIBERY,AVENIDA ATHAIDES DE DEUS VIEIRA
38405152,-18.906259,-48.25941,MG,Uberlandia,TIBERY,RUA CUBA
38405156,-18.907127,-48.259136,MG,Uberlandia,TIBERY,RUA ARGENTINA
38405158,-18.907708,-48.258532,MG,Uberlandia,TIBERY,RUA HONDURAS
38405160,-18.907774,-48.257658,MG,Uberlandia,TIBERY,RUA COSTA RICA
38405162,-18.909431,-48.258341,MG,Uberlandia,TIBERY,RUA VERDE
38405164,-18.909341,-48.257658,MG,Uberlandia,TIBERY,RUA AMARELA
38405166,-18.909329,-48.256994,MG,Uberlandia,TIBERY,RUA AZUL
38405168,-18.908808,-48.256181,MG,Uberlandia,TIBERY,RUA BRANCA
38405172,-18.908172,-48.256046,MG,Uberlandia,TIBERY,RUA PANAMA
38405174,-18.909745,-48.25751,MG,Uberlandia,TIBERY,RUA DA BANDEIRA
38405176,-18.908802,-48.2572,MG,Uberlandia,TIBERY,RUA ANTILHAS
38405178,-18.909321,-48.259419,MG,Uberlandia,TIBERY,RUA NITEROI
38405180,-18.908614,-48.258983,MG,Uberlandia,TIBERY,RUA FINLANDIA
38405182,-18.907243,-48.259399,MG,Uberlandia,TIBERY,RUA SALVADOR
38405184,-18.887454,-48.253035,MG,Uberlandia,UMUARAMA,AVENIDA FLORIANO PEIXOTO
38405186,-18.888935,-48.252351,MG,Uberlandia,CUSTODIO PEREIRA,AVENIDA CESARIO ALVIM
38405188,-18.889489,-48.251262,MG,Uberlandia,CUSTODIO PEREIRA,RUA FELICIANO DE MORAIS
38405190,-18.889905,-48.250758,MG,Uberlandia,CUSTODIO PEREIRA,RUA MICHELE VIRNO
38405192,-18.889995,-48.249428,MG,Uberlandia,CUSTODIO PEREIRA,RUA JAIRO MARQUEZ DE ANDRADE
38405194,-18.89066,-48.248489,MG,Uberlandia,CUSTODIO PEREIRA,RUA ANGELO ZOCOLLI
38405196,-18.891763,-48.247854,MG,Uberlandia,CUSTODIO PEREIRA,RUA JOSE AGOSTINHO
38405198,-18.892499,-48.246927,MG,Uberlandia,CUSTODIO PEREIRA,RUA ESTEVAO MONTEIRO
38405200,-18.892038,-48.245147,MG,Uberlandia,ALTO UMUARAMA,RUA BARAO DE COTEGIPE
38405202,-18.892151,-48.2438,MG,Uberlandia,CUSTODIO PEREIRA,RUA VISCONDE DE OURO PRETO
38405204,-18.892895,-48.242921,MG,Uberlandia,CUSTODIO PEREIRA,RUA PRUDENTE DE MORAIS
38405206,-18.891809,-48.240831,MG,Uberlandia,CUSTODIO PEREIRA,RUA CONRADO DE BRITO
38405208,-18.893636,-48.240548,MG,Uberlandia,ALTO UMUARAMA,RUA DELFIM MOREIRA
38405210,-18.892461,-48.238336,MG,Uberlandia,CUSTODIO PEREIRA,RUA PAULO DE FRONTIN
38405211,-18.894709,-48.239205,MG,Uberlandia,CUSTODIO PEREIRA,RUA DE ACESSO NOVO SOL
38405212,-18.893959,-48.237981,MG,Uberlandia,ALTO UMUARAMA,RUA TEREZINHA SEGADAES
38405216,-18.895864,-48.237865,MG,Uberlandia,ALTO UMUARAMA,RUA EUCLIDES DA CUNHA
38405218,-18.897451,-48.237565,MG,Uberlandia,CUSTODIO PEREIRA,RUA PETROPOLIS
38405220,-18.898485,-48.236901,MG,Uberlandia,CUSTODIO PEREIRA,RUA PATAGONIA
38405222,-18.898989,-48.235837,MG,Uberlandia,CUSTODIO PEREIRA,RUA BRUXELAS
38405224,-18.900294,-48.237134,MG,Uberlandia,CUSTODIO PEREIRA,RUA VICENTE DE PAULA TOSTES
38405226,-18.918009,-48.22319,MG,Uberlandia,SEGISMUNDO PEREIRA,RODOVIA BR 050
38405230,-18.932073,-48.118033,MG,Uberlandia,CAPELA DA SAUDADE,FAZENDA VEADINHO
38405234,-18.892047,-48.253408,MG,Uberlandia,CUSTODIO PEREIRA,RUA BERNARDO SAYAO
38405236,-18.896732,-48.245526,MG,Uberlandia,CUSTODIO PEREIRA,RUA PARIS
38405238,-18.893196,-48.249978,MG,Uberlandia,CUSTODIO PEREIRA,RUA JOSE REZENDE
38405240,-18.895036,-48.245689,MG,Uberlandia,CUSTODIO PEREIRA,RUA CEARA
38405242,-18.898173,-48.2403,MG,Uberlandia,CUSTODIO PEREIRA,RUA COLIBRI
38405244,-18.894116,-48.245555,MG,Uberlandia,CUSTODIO PEREIRA,RUA PIAUI
38405246,-18.895717,-48.242772,MG,Uberlandia,CUSTODIO PEREIRA,RUA JOSE BATISTA AZEVEDO
38405248,-18.893577,-48.244919,MG,Uberlandia,CUSTODIO PEREIRA,RUA ACRE
38405250,-18.892253,-48.245223,MG,Uberlandia,CUSTODIO PEREIRA,RUA CIRO DE CASTRO ALMEIDA
38405254,-18.892789,-48.242969,MG,Uberlandia,CUSTODIO PEREIRA,RUA DIMAS MOREIRA DE SA
38405256,-18.892298,-48.243231,MG,Uberlandia,CUSTODIO PEREIRA,RUA CLAUDIO PEDRO DA SILVA
38405258,-18.890354,-48.247521,MG,Uberlandia,CUSTODIO PEREIRA,RUA CONEGO PEDRO PEZZUTI
38405260,-18.891629,-48.243261,MG,Uberlandia,CUSTODIO PEREIRA,RUA LUIZ VIEIRA TAVARES
38405264,-18.891632,-48.242692,MG,Uberlandia,CUSTODIO PEREIRA,RUA HAROLDO MARINHO
38405266,-18.892296,-48.24161,MG,Uberlandia,CUSTODIO PEREIRA,PRACA DA REPUBLICA
38405268,-18.891088,-48.242596,MG,Uberlandia,CUSTODIO PEREIRA,RUA TITO TEIXEIRA
38405270,-18.892418,-48.238998,MG,Uberlandia,ALTO UMUARAMA,RUA MANOEL GOMES DOS SANTOS
38405272,-18.891314,-48.23915,MG,Uberlandia,ALTO UMUARAMA,RUA PEDRO ZANATTA
38405274,-18.890833,-48.238213,MG,Uberlandia,ALTO UMUARAMA,RUA JOAO HORTENCIO
38405275,-18.889059,-48.241463,MG,Uberlandia,ALTO UMUARAMA,RUA VISCONDE DE OURO PRETO
38405276,-18.890419,-48.237409,MG,Uberlandia,ALTO UMUARAMA,RUA CARLA APARECIDA DOS SANTOS
38405277,-18.889796,-48.240657,MG,Uberlandia,ALTO UMUARAMA,RUA PRUDENTE DE MORAIS
38405279,-18.889897,-48.23937,MG,Uberlandia,ALTO UMUARAMA,RUA CONRADO DE BRITO
38405280,-18.889544,-48.238029,MG,Uberlandia,ALTO UMUARAMA,AVENIDA DOM PEDRO II
38405281,-18.890777,-48.238474,MG,Uberlandia,ALTO UMUARAMA,RUA DELFIM MOREIRA
38405282,-18.884858,-48.246139,MG,Uberlandia,ALTO UMUARAMA,AVENIDA DOUTOR VICENTE SALLES GUIMARAES
38405283,-18.891719,-48.237739,MG,Uberlandia,ALTO UMUARAMA,RUA PAULO DE FRONTIN
38405300,-18.878688,-48.256773,MG,Uberlandia,UMUARAMA,RUA GODOFRINO GONCALVES
38405302,-18.881294,-48.257218,MG,Uberlandia,UMUARAMA,AVENIDA AMAZONAS
38405303,-18.879921,-48.257042,MG,Uberlandia,UMUARAMA,RUA DAVID CANABARRO
38405304,-18.876221,-48.258727,MG,Uberlandia,ACLIMACAO,RUA JOAO RATCHIFF
38405305,-18.88594,-48.256718,MG,Uberlandia,UMUARAMA,AVENIDA BRASIL
38405307,-18.885337,-48.255089,MG,Uberlandia,UMUARAMA,AVENIDA JOAO PINHEIRO
38405308,-18.88961,-48.257508,MG,Uberlandia,UMUARAMA,AVENIDA ARLINDO MASSARO
38405309,-18.886511,-48.254166,MG,Uberlandia,UMUARAMA,AVENIDA AFONSO PENA
38405310,-18.886869,-48.252543,MG,Uberlandia,UMUARAMA,AVENIDA FLORIANO PEIXOTO
38405311,-18.885945,-48.262199,MG,Uberlandia,UMUARAMA,RUA PARAIBA
38405314,-18.884701,-48.257013,MG,Uberlandia,UMUARAMA,AVENIDA MATO GROSSO
38405315,-18.886608,-48.258286,MG,Uberlandia,UMUARAMA,RUA CEARA
38405316,-18.884272,-48.26403,MG,Uberlandia,UMUARAMA,TRAVESSA GETULIO ALVES NASCIMENTO
38405317,-18.886478,-48.256929,MG,Uberlandia,UMUARAMA,RUA PIAUI
38405318,-18.880205,-48.257718,MG,Uberlandia,UMUARAMA,AVENIDA MARANHAO
38405319,-18.885394,-48.25705,MG,Uberlandia,UMUARAMA,RUA ACRE
38405320,-18.882136,-48.260421,MG,Uberlandia,UMUARAMA,AVENIDA PARA
38405321,-18.886021,-48.260718,MG,Uberlandia,UMUARAMA,RUA RIO GRANDE DO NORTE
38405322,-18.883488,-48.262768,MG,Uberlandia,UMUARAMA,AVENIDA LEVINO DE SOUZA
38405323,-18.883546,-48.256778,MG,Uberlandia,UMUARAMA,RUA PEDRO QUIRINO DA SILVA
